ID,Name,License Number,Source,Last Updated,Contact Info,Type,Latitude,Longitude,Address,Closed,Open,Normal Hours,Are there special hours?,Accommodation hours,Are there EM hours?,EM hours,SNAP/EBT/WIC,Delivery?,Pickup Orders?,Delivery/ Pick Up Notes,Other Notes
14248,,,,,,,,,,,,,,,,,,,,,
3364,"# 1 BAY RIDGE HEALTH FOOD INC , BAYRIDGE HEALTH FOOD",734674,,,,A,40.618821,-74.032958,"9220 3RD AVENUE, BROOKLYN, NY 11209",,,,,,,,,,,,
13655,"# 1 CONVENIENCE STORE INC , # 1 CONVENIENCE STORE",729371,,,,A,40.575874,-74.127279,"3185 RICHMOND RD, STATEN ISLAND, NY 10306",,,,,,,,,,,,
2664,"#1 JUNIOR INC , #1 JUNIOR",670837,,,,JAC,40.677462,-73.913617,"203 THOMAS S BOYLAND ST, BROOKLYN, NY 11233",,,,,,,,,,,,
2667,"#1 SMOKE SHOP INC , #1 SMOKE SHOP",731595,,,,JAC,40.632319,-73.947130,"1574 FLATBUSH AVE, BROOKLYN, NY 11210",,,,,,,,,,,,
7791,"$1 DEPOT INC , $1 DEPOT",624105,,,,A,40.810859,-73.952801,"356 W 125TH ST, NEW YORK, NY 10027",,,,,,,,,,,,
2663,"1 FLATBUSH EXPRESS DELI INC , 1 FLATBUSH EXPRESS DELI",722547,,,,JAC,40.642765,-73.956574,"2191 CLARENDON ROAD, BROOKLYN, NY 11226",,,,,,,,,,,,
7794,"1 GAUDALUPE VICTORIA INC , 1 GAUDALUPE VICTORIA",628918,,,,JAC,40.851348,-73.932251,"1484 ST NICHOLAS AVE, NEW YORK, NY 10033",,,,,,,,,,,,
10489,"1 GOURMET DELI 65 CORP , 1 GOURMET DELI 65",728134,,,,JAC,,0.000000,"65 42 WOODSIDE AVE, WOODSIDE, NY 11377",,,,,,,,,,,,
104,"1 LALY DELI GROCERY CORP , 1 LALY DELI GROCERY",728163,,,,JAC,40.838495,-73.926049,"147 WEST 168TH STREET, BRONX, NY 10452",,,,,,,,,,,,
2665,"1 NY NEW DELI CORP , 1 NY NEW DELI",734973,,,,JAC,40.657099,-73.914159,"469 E 98TH ST, BROOKLYN, NY 11212",,,,,,,,,,,,
10490,"1 STOP DELI AND GROCERY 1 CORP , 1 STOP DELI AND GROCERY",725786,,,,JAC,,0.000000,"60 71 FLUSHING AVE, MASPETH, NY 11378",,,,,,,,,,,,
105,"1 WESTFIELD MARKET & DELI CORP , 1 WESTFIELD MARKET & DE",734648,,,,JAC,40.846251,-73.820932,"3202 AMPERE AVE, BRONX, NY 10465",,,,,,,,,,,,
10488,"1BOSSRK MINI MART INC , 1BOSSRK MINI MART",670393,,,,JAC,,0.000000,"95 13 JAMAICA AVENUE, WOODHAVEN, NY 11421",,,,,,,,,,,,
7795,"1ST & 96TH MANAGEMENT INC , 1ST & 96TH MANAGEMENT",629103,,,,A,40.782962,-73.944930,"1855 1ST AVE, NEW YORK, NY 10128",,,,,,,,,,,,
8277,"1ST AVE FRUIT & VEGETABLE INC , CAFE DELI-CIOUS",706370,,,,JAC,40.740500,-73.975946,"485 1ST AVE, NEW YORK, NY 10016",,,,,,,,,,,,
7796,"1ST AVE GOURMET DELI LLC , 1ST AVE GOURMET DELI",732019,,,,JAC,40.779556,-73.947399,"1741 FIRST AVENUE, NEW YORK, NY 10128",,,,,,,,,,,,
2668,"1ST GOURMET DELI INC , 1ST GOURMET DELI",613979,,,,JAC,40.689804,-73.977753,"118 DEKALB AVE, BROOKLYN, NY 11217",,,,,,,,,,,,
160,"2 & 5 LINE DELI GROCERY INC , 2 & 5 LINE DELI GROCERY",720851,,,,JAC,40.857549,-73.867637,"2196 WHITE PLAINS RD, BRONX, NY 10462",,,,,,,,,,,,
2716,"2 BROTHERS DELI 2 INC , 2BROTHERS DELI 2",729686,,,,JAC,40.642211,-73.957791,"2124 DORCHESTER ROAD, BROOKLYN, NY 11226",,,,,,,,,,,,
174,"2 BROTHERS FAMOUS DELI INC , 2 BROTHERS FAMOUS DELI",728931,,,,JAC,40.866344,-73.867371,"2739 WHITE PLAINS AVE, BRONX, NY 10467",,,,,,,,,,,,
2717,"2 DB 33 LLC , 2 DOUGH BOYZ",733390,,,,JAC,40.657133,-74.007565,"34 35TH ST, BROOKLYN, NY 11232",,,,,,,,,,,,
7839,"2 FIVE STAR CANDY & GROCERY INC , 2-5 STAR CANDY & GROCRY",628665,,,,A,40.844618,-73.937170,"1275 ST NICHOLAS AVE, NEW YORK, NY 10033",,,,,,,,,,,,
7353,"2 JIN & LING INC , TWIN 99 CENTS STORE",671390,,,,A,40.681588,-73.879478,"3132 FULTON ST, BROOKLYN, NY 11208",,,,,,,,,,,,
10512,"2 KINGS DELI GROCERY CORP , 2 KINGS DELI & GROCERY",734703,,,,A,,0.000000,"27 19 24TH AVE, ASTORIA, NY 11102",,,,,,,,,,,,
7848,"2ND AVE CNDY CNVNIENCE STORE INC , 2ND AVE CNDY CNVNIENCE",716082,,,,A,40.799910,-73.935653,"2351 2ND AVE, NEW YORK, NY 10035",,,,,,,,,,,,
7850,"2ND AVE FRESH FOOD CORNER INC , 2ND AVE FRESH FOOD CORN",722037,,,,JAC,40.766754,-73.959856,"1310 SECOND AVE, NEW YORK, NY 10065",,,,,,,,,,,,
7851,"2ND AVENUE DELI GROCERY CORP , 2ND AVENUE DELI GROCERY",732949,,,,JAC,40.800645,-73.935110,"2371 2ND AVE, NEW YORK, NY 10035",,,,,,,,,,,,
2740,"3 BROS DELI & GROCERY NY CORP , 3 BROS DELI & GROCERY",716610,,,,JAC,40.614142,-73.981126,"6409 BAY PARKWAY, BROOKLYN, NY 11204",,,,,,,,,,,,
2741,"3 BROTHERS CONVENIENCE STORE CORP , 3 BROTHERS CONVENIENCE",729906,,,,A,40.698140,-73.938043,"1 LEWIS AVE, BROOKLYN, NY 11206",,,,,,,,,,,,
10529,"3 FRIENDLY GROCERY&DELI INC , 3 FRIENDLY GROCERY&DELI",633507,,,,JAC,,0.000000,"27 26 QUEENS PLAZA SOUTH, LONG ISLAND CITY, NY 11101",,,,,,,,,,,,
10530,"3 HANDS DELI & GRILL I CORP , 3 HANDS DELI & GRILL I",717511,,,,JAC,,0.000000,"231 34 MERRICK BLVD, LAURELTON, NY 11413",,,,,,,,,,,,
10531,"3 IN 1 DELI GROCERY INC , 3 IN 1 DELI GROCERY",734048,,,,JAC,,0.000000,"131 11 JAMAICA AVENUE, RICHMOND HILL, NY 11418",,,,,,,,,,,,
202,"3 IN ONE MARKET CORP , 3 IN ONE MARKET",731198,,,,JAC,40.858692,-73.904877,"24 W 183RD STREET, BRONX, NY 10453",,,,,,,,,,,,
3872,"3 J S FOOD CORP , COMPARE FOODS",712487,,,,JAC,40.672683,-73.890465,"2222 PITKIN AVE, BROOKLYN, NY 11207",,,,,,,,,,,,
10254,"3 J SUPERMARKET INC , TU PAIS",627697,,,,JAC,40.850682,-73.932730,"1460 ST NICHOLAS AVE, NEW YORK, NY 10033",,,,,,,,,,,,
203,"3 KINGS GROCERY & SMOKE SHOP INC , 3 KINGS GROCERY&SMOKE S",722934,,,,A,40.835726,-73.855552,"1472 UNION PORT ROAD, BRONX, NY 10462",,,,,,,,,,,,
204,"3 KINGS HOOKAH AND TOBACCO INC , 3 KINGS HOOKAH",732929,,,,A,40.858757,-73.905055,"27 WEST 183TH STREET, BRONX, NY 10453",,,,,,,,,,,,
205,"3 MMM TREE COFFEE DELI CORP , 3 MMM TREE COFFEE DELI",733869,,,,JAC,40.846552,-73.859730,"874 MORRIS PARK AVE, BRONX, NY 10462",,,,,,,,,,,,
2745,"3 SISTERS DELI GROCERY NY CORP , 3 SISTERS DELI GROCERY",610077,,,,JABC,40.664055,-73.909556,"269 DUMONT AVE, BROOKLYN, NY 11212",,,,,,,,,,,,
7875,"3 STAR DELI GROCERY INC , 3 STAR DELI GROCERY",702461,,,,A,40.836615,-73.940073,"1045 ST NICHOLAS AVE, NEW YORK, NY 10032",,,,,,,,,,,,
2746,"3 STAR GROCERY AND HALAL MEAT INC , 3 STAR GROCERY",717793,,,,JAC,40.581103,-73.959877,"3078 CONEY ISLAND AVE, BROOKLYN, NY 11235",,,,,,,,,,,,
10532,"3 STAR GROCERY CORP , 3 STAR GROCERY",631889,,,,JAC,,0.000000,"41 06 E JUNCTION BLVD, CORONA, NY 11368",,,,,,,,,,,,
3514,"3 YOUTES CORP , BOVA MEAT MARKET",729714,,,,JAC,40.617040,-74.010836,"8020 13TH AVE, BROOKLYN, NY 11228",,,,,,,,,,,,
2214,"3N CONVENIENCE STORE INC , SHELL",706947,,,,JAC,40.865494,-73.858855,"950 ALLERTON AVE, BRONX, NY 10469",,,,,,,,,,,,
2743,"3RD AVE DELI AND GRILL CORP , 3RD AVE DELI AND GRILL",707689,,,,JAC,40.629920,-74.028414,"7702 3RD AVE, BROOKLYN, NY 11209",,,,,,,,,,,,
206,"3RD AVE FISH & DELI INC , 3RD AVE FISH & DELI",723415,,,,JAC,40.814636,-73.920346,"2769 3RD AVE, BRONX, NY 10451",,,,,,,,,,,,
7871,"3RD AVE FOOD CORP I , 3RD AVE FOOD",628291,,,,JAC,40.739728,-73.982496,"325 3RD AVE, NEW YORK, NY 10010",,,,,,,,,,,,
7872,"3RD AVE GOURMET DELI INC , 3RD AVE GOURMET",723397,,,,JAC,40.797388,-73.940435,"2105 3RD AVE, NEW YORK, NY 10029",,,,,,,,,,,,
7873,"3RD AVE QUICK STOP INC , 3RD AVE QUICK STOP",624982,,,,JAC,40.741888,-73.980918,"390 3RD AVE, NEW YORK, NY 10016",,,,,,,,,,,,
207,"3RD AVE STOP SHOP CORP , 3RD AVE STOP SHOP",721652,,,,JAC,40.836493,-73.902489,"3754 3RD AVE, BRONX, NY 10456",,,,,,,,,,,,
2744,"3RD AVENUE MINI MARKET I INC , 3RD AVENUE MINI MARKET",610076,,,,JAC,40.634370,-74.026611,"7024 3RD AVE, BROOKLYN, NY 11209",,,,,,,,,,,,
7874,"3RD ST MINI MARKET CORP , 3RD ST MINI MARKET",716061,,,,JAC,40.722219,-73.983286,"23 AVE, NEW YORK, NY 10009",,,,,,,,,,,,
7886,"4 BROTHERS FOOD MARKET & DELI INC , 4 BROTHERS FOOD MARKET",732132,,,,JAC,40.824981,-73.947795,"1712 AMSTERDAM AVE, NEW YORK, NY 10031",,,,,,,,,,,,
2765,"4 GOLD STAR GOURMET DELI CORP , 4 GOLD STAR GRMT DELI",613067,,,,JAC,,0.000000,"3043 AVENUE, BROOKLYN, NY 11229",,,,,,,,,,,,
2767,"4 SEASONS FINEST DELI CORP , 4 SEASONS FINEST DELI",719402,,,,JAC,40.696076,-73.937666,"54 LEWIS AVE, BROOKLYN, NY 11206",,,,,,,,,,,,
2768,"4 SONS GROCERY CORP , 4 SONS GROCERY",618323,,,,A,40.685968,-73.938645,"328 MARCUS GARVEY BLVD, BROOKLYN, NY 11221",,,,,,,,,,,,
2769,"4 STAR A2Z DISCOUNT CORP , 4 STAR A2Z DISCOUNT",725480,,,,A,40.652206,-73.949714,"1404 NOSTRAND AVE, BROOKLYN, NY 11226",,,,,,,,,,,,
2770,"4 STAR CANDY DELI INC , 4 STAR CANDY DELI",671432,,,,JAC,40.693291,-73.973848,"327 MYRTLE AVE, BROOKLYN, NY 11205",,,,,,,,,,,,
10542,"4 STAR DELI & GRILL CORP , 4 STAR DELI & GRILL",724119,,,,JAC,,0.000000,"218 30 MERRICK BOULEVARD, SPRINGFIELD GARDEN, NY 11413",,,,,,,,,,,,
10543,"4 STAR VEGETABLE&FOOD CORP , 4 STAR VEGETABLE",633525,,,,JAC,,0.000000,"87 78 SUTPHIN BLVD, JAMAICA, NY 11435",,,,,,,,,,,,
13665,"4 WAY DELI CORP , 4 WAY DELI",641489,,,,JAC,40.636406,-74.134526,"199 PORT RICHMOND AVE, STATEN ISLAND, NY 10302",,,,,,,,,,,,
10541,"4G DELI CORP , 4G DELI",670958,,,,JAC,,0.000000,"113 16 SUTPHIN BLVD, JAMAICA, NY 11435",,,,,,,,,,,,
7887,"4M CANDY STORE INC , 4M CANDY STORE",720299,,,,A,40.798226,-73.939821,"2129 3RD AVE, NEW YORK, NY 10035",,,,,,,,,,,,
4041,"4TH AVE DELI & GRILL INC , DELI & GRILL",714624,,,,JAC,40.682598,-73.979613,"70 4TH AVE, BROOKLYN, NY 11217",,,,,,,,,,,,
2771,"4TH AVE FINE FOODS INC , 4TH AVE FINE FOODS",617569,,,,JAC,40.667884,-73.990883,"514 4TH AVE, BROOKLYN, NY 11215",,,,,,,,,,,,
2772,"4TH AVENUE GOURMET DELI CORP , 4TH AVENUE GOURMET DELI",729201,,,,JAC,40.640513,-74.018661,"6013 4TH AVENUE, BROOKLYN, NY 11220",,,,,,,,,,,,
2773,"4TH AVENUE MINI MARKET CORP , 4TH AVENUE MINI MARKET",720564,,,,JAC,40.651174,-74.007581,"4113 4TH AVENUE, BROOKLYN, NY 11232",,,,,,,,,,,,
2802,"5 BEEZ INC , 5 BEEZ",733158,,,,JAC,40.635675,-74.023090,"6752 4TH AVENUE, BROOKLYN, NY 11220",,,,,,,,,,,,
2803,"5 BOROUGH MARKET II CORP , 5 BOROUGH MARKET II",734902,,,,JAC,40.622814,-74.025378,"8402 5TH AVE, BROOKLYN, NY 11209",,,,,,,,,,,,
2804,"5 BOROUGH OF BROOKLYN WHOLESALE C , 5 BOROUGH OF BROOKLYN W",721005,,,,JAC,40.623528,-74.028070,"8504B 4TH AVE, BROOKLYN, NY 11209",,,,,,,,,,,,
4498,"5 BOROUGHS BREWERY INC , FIVE BOROUGHS BREWING C",725648,,,,JAC,40.650437,-74.014651,"215 47TH ST, BROOKLYN, NY 11220",,,,,,,,,,,,
10549,"5 DE MAYO CORP , 5 DE MAYO",713703,,,,JAC,,0.000000,"97 12 37TH AVE, CORONA, NY 11368",,,,,,,,,,,,
2806,"5 DEMAYO FOOD MARKET 2 CORP , 5 DEMAYO FOOD MARKET 2",732846,,,,JAC,40.634051,-74.026740,"7104 3RD AVENUE, BROOKLYN, NY 11209",,,,,,,,,,,,
236,"5 EAST TOBACCO CORP , 5 EAST TOBACCO",710779,,,,JAC,40.853790,-73.907287,"5 E BURNSIDE AVE, BRONX, NY 10453",,,,,,,,,,,,
2807,"5 ELEVEN DELI CORP , 5 ELEVEN DELI",724263,,,,JAC,40.681080,-73.955656,"511 FRANKLIN AVENUE, BROOKLYN, NY 11238",,,,,,,,,,,,
13717,"5 STAR DELI & GROCERY INC. , AROUND THE CLOCK DELI",728014,,,,JAC,40.612777,-74.126782,"1888 VICTORY BLVD, STATEN ISLAND, NY 10314",,,,,,,,,,,,
2808,"5 STAR EAGLE DELI CORP , 5 STAR EAGLE DELI",727106,,,,JAC,40.678416,-73.869067,"1090 LIBERTY AVE, BROOKLYN, NY 11208",,,,,,,,,,,,
2809,"5 STAR EXPRESS DELI AND GROCERY C , 5 STAR EXPRESS DELI AND",718729,,,,JAC,40.658789,-73.950443,"1176 NOSTRAND AVENUE, BROOKLYN, NY 11225",,,,,,,,,,,,
10552,"5 STAR JAMAICA DELI CORP , 5 STAR JAMAICA DELI",727725,,,,JAC,,0.000000,"214 57 JAMAICA AVE, QUEENS VILLAGE, NY 11428",,,,,,,,,,,,
235,"5D HOLDINGS LLC , 5D HOLDINGS",730334,,,,JACD,40.840661,-73.900516,"1628 BATHGATE AVE, BRONX, NY 10457",,,,,,,,,,,,
2810,"5TH AVE DISCOUNT STORE INC , 5TH AVE DISCOUNT STORE",721667,,,,A,40.650852,-74.004373,"3918 5TH AVENUE, BROOKLYN, NY 11232",,,,,,,,,,,,
7907,"5TH AVE DOLLAR LLC , 5TH AVE DOLLAR DSC STR",629169,,,,A,40.756289,-73.979639,"2 W 46TH ST, NEW YORK, NY 10036",,,,,,,,,,,,
2811,"5TH AVE GOURMET DELI GRILL INC , 5TH AVE GOURMET DELI GR",731429,,,,JAC,40.633407,-74.021036,"6902 5TH AVENUE, BROOKLYN, NY 11209",,,,,,,,,,,,
2812,"5TH AVE KINGS FRT&VEGETABLES CORP , 5TH AVE KING",617592,,,,JAC,40.633628,-74.020944,"6824 5TH AVE, BROOKLYN, NY 11220",,,,,,,,,,,,
4048,"5TH AVENUE CANDY&GROCERY INC , DELI & SMOKE SHOP",611472,,,,JAC,40.669329,-73.986158,"439 5TH AVE, BROOKLYN, NY 11215",,,,,,,,,,,,
2814,"5TH AVENUE EVERGREEN SUPERMARKET , 5TH AVENUE EVERGREEN SU",729014,,,,JAC,40.627200,-74.023560,"7802 5TH AVENUE, BROOKLYN, NY 11209",,,,,,,,,,,,
2815,"5TH AVENUE GROCERY INC , 5TH AVENUE GROCERY",714433,,,,A,40.645929,-74.009471,"4809 5TH AVE, BROOKLYN, NY 11220",,,,,,,,,,,,
7937,"5TH AVENUE WALI INC , 7-ELEVEN STORE 35300A",629278,,,,JAC,40.743731,-73.987994,"224 5TH AVE, NEW YORK, NY 10001",,,,,,,,,,,,
252,"6 BROTHERS DELI & GRILL CORP , 6 BROTHERS DELI & GRILL",725370,,,,JAC,40.851473,-73.882204,"2325 SOUTHERN BLVD, BRONX, NY 10460",,,,,,,,,,,,
10566,"6 BROTHERS MARKET & DELI CORP , 6 BROTHERS MARKET & DEL",733026,,,,JAC,40.592570,-73.783828,"5307 ROCKAWAY BEACH BLVD, FAR ROCKAWAY, NY 11691",,,,,,,,,,,,
2833,"6 STAR DELI & GROCERY CORP , 6 STAR DELI & GROCERY",714793,,,,JAC,40.669987,-73.920016,"1715 ST JOHNS PL, BROOKLYN, NY 11233",,,,,,,,,,,,
2834,"6 STIRS DELI & GROCERY CORP , 6 STIRS DELI & GROCERY",734650,,,,JAC,40.669987,-73.920016,"1715 ST JOHNS PLACE, BROOKLYN, NY 11233",,,,,,,,,,,,
2832,"6M HOLDINGS INC , 6M HOLDINGS",715917,,,,JAC,40.647690,-73.971305,"418 CONEY ISLAND AVE, BROOKLYN, NY 11218",,,,,,,,,,,,
2835,"6TH AVE DELI INC , 6TH AVE DELI",616537,,,,JAC,40.678236,-73.976059,"133 6TH AVE, BROOKLYN, NY 11217",,,,,,,,,,,,
2836,"6TH AVE GROCERY DELI OF BKLN CORP , 6TH AVE GRC DELI OF BKL",614841,,,,JAC,40.624962,-74.021560,"7901 6TH AVE, BROOKLYN, NY 11209",,,,,,,,,,,,
10574,"7 & 7 DELI CORP , 7 & 7 DELI",717723,,,,JAC,,0.000000,"111 28 SPRINGFIELD BLVD, QUEENS VILLAGE, NY 11429",,,,,,,,,,,,
2853,"7 & 7 GOURMET DELI INC , 7 & 7 GOURMET DELI",729865,,,,JAC,40.576775,-73.981531,"2904 STILLWELL AVE, BROOKLYN, NY 11224",,,,,,,,,,,,
2866,"7 AVE GOURMET INC , 7 AVE GOURMET",617280,,,,JAC,40.675097,-73.975013,"75 7TH AVE, BROOKLYN, NY 11217",,,,,,,,,,,,
10582,"7 BAGELS CORP , 7 BAGELS",718870,,,,JAC,,0.000000,"85 15 MAIN STREET, JAMAICA, NY 11435",,,,,,,,,,,,
270,"7 DAYS & 7 NIGHTS DELI GROCERY IN , 7 DAYS & 7 NIGHTS DELI",729992,,,,JAC,40.853937,-73.883730,"717 E 187TH ST, BRONX, NY 10458",,,,,,,,,,,,
10583,"7 DAYS CONVENIENCE STORE INC , 7 DAYS CONVENIENCE STOR",721359,,,,JAC,,0.000000,"89 55 METROPOLITAN AVE, REGO PARK, NY 11374",,,,,,,,,,,,
13671,"7 DELI GROCERY INC , 7 DELI GROCERY",641247,,,,JAC,40.637453,-74.113536,"630 HENDERSON AVE, STATEN ISLAND, NY 10310",,,,,,,,,,,,
1,"7 ELEVEN FOOD STORE #37933H , ",734149,,,,JAC,40.869156,-73.831875,"500 BAYCHESTER AVE, BRONX, NY 10475",,,,,,,,,,,,
7925,"7 ELEVEN INC , 7 ELEVEN",717976,,,,JAC,40.790814,-73.947329,"1642 LEXINGTON AVE, NEW YORK, NY 10029",,,,,,,,,,,,
7928,"7 ELEVEN INC , 7 ELEVEN 35866H",712632,,,,JAC,40.794918,-73.971710,"2567 BROADWAY, NEW YORK, NY 10025",,,,,,,,,,,,
2874,"7 ELEVEN INC , 7 ELEVEN STORE # 32126J",729051,,,,JAC,40.591900,-73.940303,"3768 NOSTRAND AVE, BROOKLYN, NY 11235",,,,,,,,,,,,
10623,"7 ELEVEN INC , 7 ELEVEN STORE # 35987H",732360,,,,JAC,40.721596,-73.844789,"107 40 QUEENS BLVD, FOREST HILLS, NY 11375",,,,,,,,,,,,
2891,"7 ELEVEN INC , 7 ELEVEN STORE # 37073H",714965,,,,JAC,40.619832,-73.989469,"6321 18TH AVE, BROOKLYN, NY 11204",,,,,,,,,,,,
7966,"7 ELEVEN INC , 7 ELEVEN STORE # 37176H",721360,,,,JAC,40.822675,-73.942048,"2726 FREDERICK DOUGLASS BLVD, NEW YORK, NY 10030",,,,,,,,,,,,
7967,"7 ELEVEN INC , 7 ELEVEN STORE # 37194H",722543,,,,JAC,40.804279,-73.955022,"256 W 116TH ST, NEW YORK, NY 10026",,,,,,,,,,,,
2873,"7 ELEVEN INC , 7 ELEVEN STORE #27037J",731118,,,,JAC,40.602530,-73.942286,"3342 NOSTRAND AVE, BROOKLYN, NY 11229",,,,,,,,,,,,
10607,"7 ELEVEN INC , 7 ELEVEN STORE #33574J",731123,,,,JAC,,0.000000,"31 31 THOMPSON AVE, LONG ISLAND CITY, NY 11101",,,,,,,,,,,,
7935,"7 ELEVEN INC , 7 ELEVEN STORE #34917J",709252,,,,JAC,40.769424,-73.954816,"1412 FIRST AVE, NEW YORK, NY 10021",,,,,,,,,,,,
7943,"7 ELEVEN INC , 7 ELEVEN STORE #35522K",726729,,,,JAC,40.788591,-73.970637,"600 COLUMBUS AVE, NEW YORK, NY 10024",,,,,,,,,,,,
7949,"7 ELEVEN INC , 7 ELEVEN STORE #35670J",719925,,,,JAC,40.777681,-73.948773,"1683 FIRST AVE, NEW YORK, NY 10128",,,,,,,,,,,,
277,"7 ELEVEN INC , 7 ELEVEN STORE #35887H",704245,,,,JAC,40.849488,-73.916688,"1764 UNIVERSITY AVE, BRONX, NY 10453",,,,,,,,,,,,
2883,"7 ELEVEN INC , 7 ELEVEN STORE #36025H",704557,,,,JAC,40.644190,-73.929577,"1163 UTICA AVE, BROOKLYN, NY 11203",,,,,,,,,,,,
2884,"7 ELEVEN INC , 7 ELEVEN STORE #36038H",707458,,,,JAC,40.651759,-73.959062,"845 FLATBUSH AVE, BROOKLYN, NY 11226",,,,,,,,,,,,
2886,"7 ELEVEN INC , 7 ELEVEN STORE #36096J",731334,,,,JAC,40.663505,-73.957456,"146 EMPIRE BLVD, BROOKLYN, NY 11225",,,,,,,,,,,,
7957,"7 ELEVEN INC , 7 ELEVEN STORE #36478H",708192,,,,JAC,40.707646,-74.005717,"111 JOHN ST, NEW YORK, NY 10038",,,,,,,,,,,,
7961,"7 ELEVEN INC , 7 ELEVEN STORE #36878",708623,,,,JAC,40.716104,-73.987365,"403 GRAND ST, NEW YORK, NY 10002",,,,,,,,,,,,
7962,"7 ELEVEN INC , 7 ELEVEN STORE #36979H",709730,,,,JAC,40.744877,-73.997489,"246 WEST 23RD ST, NEW YORK, NY 10011",,,,,,,,,,,,
2889,"7 ELEVEN INC , 7 ELEVEN STORE #37020H",713336,,,,JAC,40.680518,-73.951913,"1239 FULTON ST, BROOKLYN, NY 11216",,,,,,,,,,,,
10626,"7 ELEVEN INC , 7 ELEVEN STORE #37064H",713809,,,,JAC,,0.000000,"224 01 MERRICK BLVD, SPRINGFIELD GARDEN, NY 11413",,,,,,,,,,,,
10627,"7 ELEVEN INC , 7 ELEVEN STORE #37717H",730487,,,,JAC,,0.000000,"159 35 CROSS BAY BLVD, HOWARD BEACH, NY 11414",,,,,,,,,,,,
2881,"7 ELEVEN INC , 7 ELEVEN STORE 34736H",671421,,,,JAC,40.630858,-73.945579,"1623 FLATBUSH AVE, BROOKLYN, NY 11210",,,,,,,,,,,,
7965,"7 ELEVEN INC , 7-ELEVEN STORE# 37116H",715115,,,,JAC,40.796842,-73.937898,"2256 2ND AVE, NEW YORK, NY 10029",,,,,,,,,,,,
10625,"7 ELEVEN STORE INC , 7 ELEVEN STORE # 36984H",711963,,,,JAC,,0.000000,"117 13 FARMERS BLVD, SAINT ALBANS, NY 11412",,,,,,,,,,,,
281,"7 FLOOR DELI CORP , 7 FLOOR DELI",725447,,,,JAC,40.879072,-73.899589,"3340 FORT INDEPENDENCE ST, BRONX, NY 10463",,,,,,,,,,,,
1376,"7 H GROUP INC. , J & E DELI GROCERY",718908,,,,JAC,40.826215,-73.907849,"3321 3RD AVENUE, BRONX, NY 10456",,,,,,,,,,,,
9019,"7 PARK AVENUE FOODS INC , GREEN LEAF GOURMET MKT",624780,,,,JAC,40.747271,-73.981106,"7 PARK AVE, NEW YORK, NY 10016",,,,,,,,,,,,
2895,"7 SEAS GROCERY CORP , 7 SEAS GROCERY",727741,,,,JAC,40.707990,-73.939886,"235 BUSHWICK AVE, BROOKLYN, NY 11206",,,,,,,,,,,,
10633,"7 STAR DELI GROCERY INC , 7 STAR DELI GROCERY",728082,,,,JAC,,0.000000,"89 02 NORTHERN BLVD, JACKSON HEIGHTS, NY 11372",,,,,,,,,,,,
10634,"7 STARS DELI & TOBACCO INC , 7 STARS DELI & TOBACCO",725934,,,,JAC,40.701421,-73.905355,"802 SENECA AVE, RIDGEWOOD, NY 11385",,,,,,,,,,,,
13675,"7-ELEVEN FOOD STORE INC , 7-ELEVEN FOOD #38309H",732898,,,,JAC,40.627269,-74.166227,"2290 FOREST AVE, STATEN ISLAND, NY 10303",,,,,,,,,,,,
7929,"7-ELEVEN INC , 7 ELEVEN #37688H",727380,,,,JAC,40.800274,-73.946733,"1400 5TH AVENUE, NEW YORK, NY 10026",,,,,,,,,,,,
2892,"7-ELEVEN INC , 7 ELEVEN STORE #37339H",726266,,,,JAC,40.701453,-73.942236,"22 GRAHAM AVE, BROOKLYN, NY 11206",,,,,,,,,,,,
2867,"7-ELEVEN INC , 7-ELEVEN #26673J",734862,,,,JAC,40.629177,-73.918350,"1970 RALPH AVE, BROOKLYN, NY 11234",,,,,,,,,,,,
10586,"7-ELEVEN INC , 7-ELEVEN #36100H",713528,,,,JAC,,0.000000,"79 37 METROPOLITAN AVE, MIDDLE VILLAGE, NY 11379",,,,,,,,,,,,
7963,"7-ELEVEN INC , 7-ELEVEN STORE #37023H",714216,,,,JAC,40.847353,-73.935179,"600 W 178TH ST, NEW YORK, NY 10033",,,,,,,,,,,,
10603,"7-ELEVEN INC , 7-ELEVEN STORE 29937C",636945,,,,JAC,,0.000000,"65 07 WOODHAVEN BLVD, REGO PARK, NY 11374",,,,,,,,,,,,
2880,"7-ELEVEN INC , 7-ELEVEN STORE 34230H",670962,,,,JAC,40.729830,-73.954090,"883 885 MANHATTAN AVE, BROOKLYN, NY 11222",,,,,,,,,,,,
10618,"7-ELEVEN INC , 7-ELEVEN STORE 35495J",671422,,,,JAC,,0.000000,"42 02 QUEENS BLVD, SUNNYSIDE, NY 11104",,,,,,,,,,,,
10628,"7-ELEVEN INC , 7-ELEVEN STORE#37717H",729394,,,,JAC,,0.000000,"159 35 CROSS BAY BLVD, HOWARD BEACH, NY 11414",,,,,,,,,,,,
253,"7/10 DELI MARKET CORP , 7/10 DELI MARKET",710765,,,,JAC,40.828245,-73.924524,"898 900 GERARD AVE, BRONX, NY 10452",,,,,,,,,,,,
7977,"7TH AVE DELI GROCERY CORP , 7TH AVE DELI GROCERY",713223,,,,JAC,40.819200,-73.940756,"2417 ADAM CLAYTON POWELL BLVD, NEW YORK, NY 10030",,,,,,,,,,,,
7978,"7TH AVE HARLEM FOOD CORP , 7TH AVE HARLEM FOOD",628468,,,,JAC,40.815107,-73.943724,"2299 7TH AVE, NEW YORK, NY 10030",,,,,,,,,,,,
2896,"7TH AVE NEWS INC , 7TH AVE NEWS",715059,,,,JAC,40.670715,-73.978385,"206 7TH AVE, BROOKLYN, NY 11215",,,,,,,,,,,,
2897,"7TH AVE SMOKE SHOP CORP , 7TH AVE SMOKE SHOP",717582,,,,JAC,40.667222,-73.981296,"317 7TH AVE, BROOKLYN, NY 11215",,,,,,,,,,,,
2898,"7TH AVE SUPERIOR MARKET INC , 7TH AVE SUPERIOR MARKET",715789,,,,JAC,40.623549,-74.019095,"7909 7TH AVE, BROOKLYN, NY 11228",,,,,,,,,,,,
7976,"7TH AVENUE ARISTOCRATIC DELI INC , 7TH AVE ARISTOCRATIC DL",627655,,,,JAC,40.744369,-73.996277,"208 W 23RD ST, NEW YORK, NY 10011",,,,,,,,,,,,
7979,"7TH AVENUE GROCERY CORP , 7TH AVENUE GROCERY",713217,,,,JAC,40.824852,-73.936848,"2588 7TH AVE, NEW YORK, NY 10039",,,,,,,,,,,,
7980,"7TH HEAVEN GOURMET DELI INC , 7TH HEAVEN GOURMET DELI",725289,,,,JAC,40.821499,-73.939288,"2496 7TH AVE, NEW YORK, NY 10030",,,,,,,,,,,,
2899,"7TH ST DELI & GROCERY CORP , 7TH ST DELI & GROCERY",718064,,,,JAC,40.670490,-73.985197,"402 5TH AVE, BROOKLYN, NY 11215",,,,,,,,,,,,
7981,"7TH ST VILLAGE FARM INC , 7TH ST VILLAGE FARM",627020,,,,JAC,40.726904,-73.985827,"113 1ST AVE, NEW YORK, NY 10003",,,,,,,,,,,,
291,"8 KINGSBRIDGE DELI AND GRCERY INC , 8 KINGSBRIDGE DELI AND",716833,,,,A,40.867579,-73.897964,"8 W KINGSBRIDGE RD, BRONX, NY 10468",,,,,,,,,,,,
7993,"8TH AVE DELI GROCERY INC , 8TH AVE DELI GROCERY",719088,,,,JAC,40.822286,-73.942328,"2712 FREDERICK DOUGLAS BLVD, NEW YORK, NY 10030",,,,,,,,,,,,
2925,"8TH AVE MINI MARKET CORP , 8TH AVE MINI MARKET",719671,,,,JAC,40.660242,-73.983821,"1658 8TH AVE, BROOKLYN, NY 11215",,,,,,,,,,,,
7994,"8TH AVENUE MINI MALL INC , 8TH AVENUE MINI MALL",730666,,,,A,40.816232,-73.946757,"2528 FREDERICK DOUGLAS BLVD, NEW YORK, NY 10030",,,,,,,,,,,,
7995,"8TH AVENUE TOBACCO & MAGAZINE INC , 8TH AVENUE TOBACCO & MA",712216,,,,JAC,40.750386,-73.998479,"334 9TH AVE, NEW YORK, NY 10001",,,,,,,,,,,,
317,"9 CIENTO DELI & GROCERY CORP , 9 CIENTO DELI & GROCERY",721012,,,,JAC,40.865541,-73.861349,"900 ALLERTON AVE, BRONX, NY 10469",,,,,,,,,,,,
8014,"9 ONE 4 LLC , 9 ONE 4",734406,,,,JAC,40.781170,-73.949330,"1748 2ND AVENUE, NEW YORK, NY 10128",,,,,,,,,,,,
318,"9 STARS DELI CORP , 9 STARS DELI",719174,,,,JAC,40.857373,-73.906709,"2193 GRAND, BRONX, NY 10453",,,,,,,,,,,,
8310,"9-11 DELI CORP , CENTRAL PARK ORGANIC DE",715604,,,,JAC,40.797278,-73.950172,"9 W 110TH ST, NEW YORK, NY 10026",,,,,,,,,,,,
8093,"9TH AVE DELI&GROCERY INC , AM/PM DELI",625386,,,,JAC,40.755210,-73.994987,"480 9TH AVE, NEW YORK, NY 10018",,,,,,,,,,,,
8015,"9TH AVE GOURMET DELI INC , 9TH AVE GOURMET DELI",725963,,,,JAC,40.764483,-73.988206,"769 9TH AVE, NEW YORK, NY 10019",,,,,,,,,,,,
9870,"9TH AVE GROCERY CORP , PORT AUTHORITY FOOD",624766,,,,JAC,40.758174,-73.992792,"572 9TH AVE, NEW YORK, NY 10036",,,,,,,,,,,,
8017,"9TH AVENUE ROYAL DELI INC , 9TH AVENUE ROYAL DELI",622247,,,,JAC,40.766111,-73.987031,"817 9TH AVE, NEW YORK, NY 10019",,,,,,,,,,,,
7,"10 NEIGHBORHOOD CANDY GROCERY COR , 10 NEIGHBORHOOD CANDY G",703060,,,,JAC,40.882869,-73.881552,"10 W GUN HILL RD, BRONX, NY 10467",,,,,,,,,,,,
7703,"10TH AVE PETROLEUM LLC , 10TH AVE PETROLEUM",628102,,,,JAC,40.756122,-73.998042,"466 10TH AVE, NEW YORK, NY 10018",,,,,,,,,,,,
9109,"10TH AVENUE DELI AND GROCERY CORP , HELLS KITCHEN GOURMET",732117,,,,JAC,40.760469,-73.994873,"593 10TH AVENUE, NEW YORK, NY 10036",,,,,,,,,,,,
7704,"10TH STREET FOOD CORP , 10TH STREET FOOD",710535,,,,JAC,40.725992,-73.977803,"392 EAST 10TH ST, NEW YORK, NY 10009",,,,,,,,,,,,
3823,"11 UM FOOD CORP , CITY ACRES MARKET",710078,,,,JAC,40.710758,-73.967981,"11 BROADWAY, BROOKLYN, NY 11249",,,,,,,,,,,,
6387,"11 VANDERBILT ROASTERY LLC , PARLOR COFFEE",714292,,,,JACH,40.697408,-73.970681,"11 VANDERBILT AVE, BROOKLYN, NY 11205",,,,,,,,,,,,
2597,"11-7 DELI GROUP INC , 11-7 DELI GROUP",710890,,,,JAC,40.704611,-73.918920,"1632 DEKALB AVENUE, BROOKLYN, NY 11237",,,,,,,,,,,,
2598,"11TH AVE FOOD CENTER OF NY INC , 11TH AVE FOOD CTR OF NY",610609,,,,A,40.632006,-74.002434,"5901 11TH AVE, BROOKLYN, NY 11219",,,,,,,,,,,,
8240,"12 EAST FF CORP , BREAD & HONEY",628822,,,,JAC,40.765814,-73.983539,"941 8TH AVE, NEW YORK, NY 10019",,,,,,,,,,,,
10463,"12 ST GOURMET DELI INC , 12 ST GOURMET DELI",734427,,,,JAC,40.755953,-73.942627,"1203 40TH AVE, LONG ISLAND CITY, NY 11101",,,,,,,,,,,,
22,"12E 196TH STREET FOOD INC , 12E 196TH STREET FOOD",605957,,,,JAC,40.868979,-73.895470,"12E 196TH ST, BRONX, NY 10468",,,,,,,,,,,,
12021,"12JE FRUIT&VEGETABLES INC , JE FRUIT&VEGETABLES",670521,,,,JAC,,0.000000,"162 02 NORTHERN BLVD, FLUSHING, NY 11358",,,,,,,,,,,,
3292,"12ST FOOD CORP , AWESOME ORGANIC MARKET",732661,,,,JAC,40.667461,-73.987726,"493 5TH AVE, BROOKLYN, NY 11215",,,,,,,,,,,,
4492,"12TH AVE FISH MARKET INC , FISH MARKET",614032,,,,JAC,40.635171,-73.995543,"5112 12TH AVE, BROOKLYN, NY 11219",,,,,,,,,,,,
13649,"13 GOLDEN DELI INC , 13 GOLDEN DELI",641613,,,,JAC,40.624221,-74.079398,"13 TOMPKINS AVE, STATEN ISLAND, NY 10304",,,,,,,,,,,,
2614,"13 STAR DELI AND GROCERY , 13 STAR DELI AND GROCER",723490,,,,JAC,40.671070,-73.922375,"536 RALPH AVE, BROOKLYN, NY 11233",,,,,,,,,,,,
7215,"13TH AVE KOSHER BAKERY INC , TAAM EDEN BAKERY",720015,,,,JABCH,40.636593,-73.990496,"4603 13TH AVE, BROOKLYN, NY 11219",,,,,,,,,,,,
2615,"13TH AVE MINI MART INC , 13TH AVE MINI MART",712321,,,,A,40.617713,-74.010139,"7912 13TH AVE, BROOKLYN, NY 11228",,,,,,,,,,,,
4637,"13TH AVENUE FISH MARKET INC , FREUNDS FISH MARKET",610122,,,,JACHK,40.635661,-73.984279,"4301 15TH AVE, BROOKLYN, NY 11219",,,,,,,,,,,,
4792,"13TH AVENUE SUPERMARKET LLC , GOURMET GLATT MARKET",671641,,,,JAC,40.640955,-73.986828,"1274 39TH ST, BROOKLYN, NY 11218",,,,,,,,,,,,
2616,"13TH STREET DELI GROCERY INC , 13TH STREET DELI GROCER",725163,,,,JAC,40.666876,-73.988217,"513 5TH AVENUE, BROOKLYN, NY 11215",,,,,,,,,,,,
12935,"14 BROTHERS DELI&GROCERY CORP , RIDGEWOOD EXP DELI GRCY",636340,,,,JAC,40.704599,-73.902276,"810 FAIRVIEW AVE, RIDGEWOOD, NY 11385",,,,,,,,,,,,
7739,"14TH ST CANDY&GROCERY INC , 14TH ST CANDY&GROCERY",624163,,,,JAC,40.731219,-73.982258,"402 E 14TH ST, NEW YORK, NY 10009",,,,,,,,,,,,
13652,"15 ISLAND DELI GROCERY INC , 15 ISLAND DELI GROCERY",727322,,,,JAC,40.638203,-74.079422,"15 CORSON AVENUE, STATEN ISLAND, NY 10301",,,,,,,,,,,,
2627,"15TH AVENUE MINI MARKET CORP , 15TH AVENUE MINI MARKET",670650,,,,JAC,40.617534,-74.003144,"7501 15TH AVE, BROOKLYN, NY 11228",,,,,,,,,,,,
2639,"16TH AVENUE GROCERY INC , 16TH AVENUE GROCERY",611929,,,,JAC,40.628890,-73.987734,"5222 16TH AVE, BROOKLYN, NY 11204",,,,,,,,,,,,
4517,"16TH ST COOPERATIVE CORP , FLATBUSH FOOD COOP",614587,,,,JAC,40.641134,-73.964607,"1415 CORTELYOU RD, BROOKLYN, NY 11226",,,,,,,,,,,,
7767,"16TH STREET DELI & GROCERY INC , 16TH STREET DELI& GRCRY",628351,,,,JAC,40.732580,-73.981663,"279 1ST AVE, NEW YORK, NY 10003",,,,,,,,,,,,
2645,"17TH AVENUE FOOD CENTER INC , 17TH AVENUE FOOD CENTER",612912,,,,JAC,40.626055,-73.986697,"5503 17TH AVE, BROOKLYN, NY 11204",,,,,,,,,,,,
2646,"17TH MINI MART INC , 17TH MINI MART",719944,,,,A,40.610143,-74.003246,"8306 17TH AVENUE, BROOKLYN, NY 11214",,,,,,,,,,,,
76,"17UP FOOD PRODUCT CORP , 17UP FOOD",718260,,,,JAC,40.838600,-73.916700,"1378 WALTON AVE, BRONX, NY 10452",,,,,,,,,,,,
2650,"18 FUEL CORP , 18 FUEL",729496,,,,JAC,40.613542,-73.996231,"1781 BAY RIDGE PKWY, BROOKLYN, NY 11204",,,,,,,,,,,,
3222,"18TH AVE CONVENIENCE INC , AROUND THE CLOCK DELI",612295,,,,JAC,40.607122,-74.002797,"8601 18TH AVE, BROOKLYN, NY 11214",,,,,,,,,,,,
2652,"18TH AVE SMOKE SHOP DISCOUNT LTD , 18TH AVE SMOKE SHOP DIS",616074,,,,JAC,40.609497,-73.999926,"8120 18TH AVE, BROOKLYN, NY 11214",,,,,,,,,,,,
2654,"18TH GOURMET DELI INC , 18TH GOURMET DELI",721155,,,,JAC,40.607728,-74.002062,"8501 18TH AVE, BROOKLYN, NY 11214",,,,,,,,,,,,
7790,"19 AVENUE D CORP , 19 AVENUE D",730973,,,,JAC,40.722101,-73.983374,"19 AVENUE, NEW YORK, NY 10009",,,,,,,,,,,,
103,"19 W BRONX DELI GROCERY CORP , 19 W BRONX DELI GROCERY",704248,,,,JAC,40.858617,-73.904645,"19 W 183RD ST, BRONX, NY 10453",,,,,,,,,,,,
2661,"19TH AVENUE CONVENIENCE INC. , 19TH AVE DELI & GROCERY",733500,,,,JAC,40.606055,-74.000656,"1880 86TH STREET, BROOKLYN, NY 11214",,,,,,,,,,,,
6575,"20 AVENUE GROCERY INC , QUICK STOP",719025,,,,A,40.614324,-73.988146,"6824 20TH AVE, BROOKLYN, NY 11204",,,,,,,,,,,,
7812,"20 EAST STAR DELI GROCERY CORP , 20 EAST STAR DELI GROCE",703484,,,,JAC,40.810389,-73.937907,"20 EAST 132ND ST, NEW YORK, NY 10037",,,,,,,,,,,,
2675,"20 NORTH 5TH STREET DELI INC , 20 N 5TH ST DELI",670040,,,,JAC,40.719428,-73.963263,"20 N 5TH ST, BROOKLYN, NY 11211",,,,,,,,,,,,
112,"20-20 GOURMET DELI INC , 20-20-GOURMET DELI",716205,,,,JAC,40.822524,-73.916748,"788 A COURTLANDT AVE, BRONX, NY 10451",,,,,,,,,,,,
109,"20/20 CONVENIENCE STORE INC , 20/20 CONVENIENCE STORE",607804,,,,JAC,40.824121,-73.913634,"400 E 161ST ST, BRONX, NY 10451",,,,,,,,,,,,
10494,"20TH AVENUE FARMERS MARKET INC , 20TH AVENUE FARMERS MKT",631661,,,,JAC,,0.000000,"130 07 20TH AVE, COLLEGE POINT, NY 11356",,,,,,,,,,,,
10496,"21 AVE DELI GROCERY CORP , 21 AVE DELI GROCERY",721830,,,,JAC,40.784038,-73.917073,"29 15 21ST AVE, ASTORIA, NY 11105",,,,,,,,,,,,
10497,"21 AVENUE DELI GROCERY CORP , 21 AVENUE DELI GROCERY",719670,,,,JAC,40.784038,-73.917073,"29 15 21ST AVE, ASTORIA, NY 11105",,,,,,,,,,,,
7821,"21 BERRY DELI INC , 21 BERRY DELI",627975,,,,JAC,40.739867,-73.989581,"922 BROADWAY, NEW YORK, NY 10010",,,,,,,,,,,,
10498,"21 FAMOUS DELI GROCERY CORP , 21 FAMOUS DELI GROCERY",730469,,,,JAC,40.784038,-73.917073,"29 15 21ST AVENUE, ASTORIA, NY 11105",,,,,,,,,,,,
10500,"21 STREET DELI GROCERY INC , 21 STREET DELI GROCERY",725047,,,,JAC,,0.000000,"13 13 40TH AVENUE, LONG ISLAND CITY, NY 11101",,,,,,,,,,,,
2682,"21ST AVENUE PHARMACY & MEDICAL SU , 21ST AVENUE PHARMACY &",707817,,,,A,40.603633,-73.995690,"8511 21ST AVE, BROOKLYN, NY 11214",,,,,,,,,,,,
10499,"21ST CENTURY PHARMACY INC , 21ST CENTURY PHARMACY",713156,,,,A,,0.000000,"96 05 57TH AVE, CORONA, NY 11368",,,,,,,,,,,,
10501,"21ST STREET DELI INC , 21ST STREET DELI",639714,,,,JAC,,0.000000,"40 35 21ST ST, LONG ISLAND CITY, NY 11101",,,,,,,,,,,,
7826,"22 CHELSEA FARM LLC , 22 CHELSEA FARM",627172,,,,JAC,40.744508,-73.999060,"234 8TH AVE, NEW YORK, NY 10011",,,,,,,,,,,,
7832,"23 DELI LLC , 23 DELI",629335,,,,JAC,40.747566,-74.003882,"405 W 23RD ST, NEW YORK, NY 10011",,,,,,,,,,,,
10502,"23-34 94TH STREET GROCERY CORP , 23-34 94TH ST GRCY",635432,,,,JAC,,0.000000,"23 34 94TH ST, EAST ELMHURST, NY 11369",,,,,,,,,,,,
2686,"23RD ST GENERAL MARKET&DELI CORP , 23RD ST GENERAL MKT&DEL",616419,,,,JAC,40.661651,-73.996690,"713 4TH AVE, BROOKLYN, NY 11232",,,,,,,,,,,,
10503,"24 AVE DELI CORP , 24 AVE DELI",723008,,,,JAC,,0.000000,"24 01 31ST ST, ASTORIA, NY 11102",,,,,,,,,,,,
154,"24 DELI GROCERY CORP , 24 DELI GROCERY",609649,,,,JAC,40.850630,-73.851623,"1801 WILLIAMSBRIDGE RD, BRONX, NY 10461",,,,,,,,,,,,
155,"24 HOUR FOOD MART INC , 24 HOUR FOOD MART",726831,,,,JAC,40.835715,-73.928139,"156 W 166TH STREET, BRONX, NY 10452",,,,,,,,,,,,
2688,"24 HOURS EXPRESS GROCERY CORP , 24 HRS EXPRESS DELI GRY",618780,,,,A,40.711625,-73.944115,"720 GRAND ST, BROOKLYN, NY 11211",,,,,,,,,,,,
13659,"24 HR MINI MART INC , 24 HR MINI MART",716178,,,,JAC,40.544629,-74.165469,"3835 RICHMOND AVE, STATEN ISLAND, NY 10312",,,,,,,,,,,,
2690,"24 MINI MARKET FLOWER INC , 24 MINI MARKET FLOWER",733266,,,,JAC,40.587474,-73.960307,"2835 CONEY ISLAND AVE, BROOKLYN, NY 11235",,,,,,,,,,,,
2691,"24 SEVEN A K STORE CORP , 24 SEVEN A K STORE",704835,,,,JAC,40.648074,-74.007216,"4418 5TH AVE, BROOKLYN, NY 11220",,,,,,,,,,,,
1135,"24 WEST FOOD CORP , FOOD DINASTY SUPERMKT",703145,,,,JAC,40.862705,-73.902721,"24 30 WEST FORDHAM ROAD, BRONX, NY 10468",,,,,,,,,,,,
2694,"25/7 EXPRESS SULLIVAN FOOD CORP , 25/7 EXPRESS SULLIVAN F",712839,,,,JAC,40.664721,-73.953762,"356 ROGERS AVE, BROOKLYN, NY 11225",,,,,,,,,,,,
13296,"25TH ASTORIA BAGEL & PIZZA INC , SUN DELI GROCERY",638582,,,,JABC,,0.000000,"25 08 31ST ST, ASTORIA, NY 11102",,,,,,,,,,,,
168,"26 KINGSBRIDGE FARM INC , 26 KINGSBRIDGE FARM",607056,,,,JAC,40.867744,-73.898820,"26 W KINGSBRIDGE RD, BRONX, NY 10468",,,,,,,,,,,,
7840,"26 TOBACCO SHOP CORP , 26 TOBACCO SHOP",717787,,,,A,40.721414,-73.980783,"26 AVENUE, NEW YORK, NY 10009",,,,,,,,,,,,
7842,"27 BROADWAY DELI INC , 27 BROADWAY DELI INC",721694,,,,JAC,40.744597,-73.988869,"1158 BROADWAY, NEW YORK, NY 10001",,,,,,,,,,,,
7843,"27 DELI NC , 27 DELI",728333,,,,JAC,40.741928,-73.982997,"97 LEXINGTON AVE, NEW YORK, NY 10016",,,,,,,,,,,,
10528,"28 EMPIRE , 3 ALARM DELI",728135,,,,JAC,40.773140,-73.931873,"45 15 28TH AVENUE, ASTORIA, NY 11103",,,,,,,,,,,,
13394,"28TH AVENUE DELI INC , THREE ALARM DELI",716793,,,,JAC,40.773140,-73.931873,"45 15 28TH AVE, ASTORIA, NY 11103",,,,,,,,,,,,
10509,"28TH AVENUE DELI&GROCERY INC , 28TH AVENUE DELI&GRCY",671214,,,,JAC,40.773158,-73.931929,"40 11 28TH AVE, ASTORIA, NY 11103",,,,,,,,,,,,
10511,"29 FRUIT MARKET INC , 29 FRUIT MARKET",721797,,,,JAC,40.762669,-73.926868,"2901 BROADWAY, ASTORIA, NY 11106",,,,,,,,,,,,
2715,"29 KINGSLAND DELI GROCERY CORP , 29 KINGSLAND DELI GROCE",702023,,,,JAC,40.716975,-73.940203,"29 KINGSLAND AVE, BROOKLYN, NY 11211",,,,,,,,,,,,
10510,"29-29 SNACK SHOP INC , 29-29 SNACK SHOP",638758,,,,JAC,,0.000000,"29 29 23RD AVE, ASTORIA, NY 11105",,,,,,,,,,,,
10514,"30-46 AVE DELI & GROCERY INC , 30-46 AVE DELI & GROCER",639150,,,,JAC,,0.000000,"45 20 30TH AVE, ASTORIA, NY 11103",,,,,,,,,,,,
10515,"30TH AVE DELI INC , 30TH AVE DELI",708769,,,,JAC,40.764590,-73.916469,"3702 30TH AVE, ASTORIA, NY 11103",,,,,,,,,,,,
10516,"30TH AVE FRUIT MARKET INC , 30TH AVE FRUIT MKT",631828,,,,JAC,,0.000000,"32 12 30TH AVE, ASTORIA, NY 11102",,,,,,,,,,,,
10518,"31ST AVE DELI CORP , 31ST AVE DELI",715657,,,,JAC,,0.000000,"50 27 31ST AVE, WOODSIDE, NY 11377",,,,,,,,,,,,
11011,"32-11 CHANNEL FOOD CORP , BRAVO SUPERMARKET",634763,,,,JAC,,0.000000,"32 11 BEACH CHANNEL DR, FAR ROCKAWAY, NY 11691",,,,,,,,,,,,
10519,"32ND AVE GROCERY INC , 32ND AVE GROCERY",730907,,,,JAC,,0.000000,"31 52 137TH STREET, FLUSHING, NY 11354",,,,,,,,,,,,
9194,"32ND STREET 99 & CORP , JACKS 99?",620877,,,,A,40.748793,-73.989399,"110 W 32ND ST, NEW YORK, NY 10001",,,,,,,,,,,,
10521,"34 DELI GROCERY INC , 34 DELI GROCERY",705232,,,,JAC,,0.000000,"105 02 34TH AVE, CORONA, NY 11368",,,,,,,,,,,,
7859,"34 MIDTOWN DELI INC , 34 MIDTOWN DELI",623425,,,,JAC,40.744298,-73.974732,"322 E 34TH ST, NEW YORK, NY 10016",,,,,,,,,,,,
2725,"34 NOSTRAND FOOD CORP , 34 NOSTRAND FOOD",718833,,,,JAC,40.698946,-73.953294,"34 NOSTRAND AVE, BROOKLYN, NY 11205",,,,,,,,,,,,
10520,"34-16 UNION STREET MARKET INC , 34-16 UNION ST MARKET",636312,,,,JAC,,0.000000,"34 16 UNION ST, FLUSHING, NY 11354",,,,,,,,,,,,
10522,"36TH DELI GROCERY INC , 36TH DELI GROCERY",715876,,,,JAC,,0.000000,"12 12 36TH AVE, ASTORIA, NY 11106",,,,,,,,,,,,
2730,"36TH FOOD & GRILL INC , 36TH FOOD & GRILL",714342,,,,JAC,40.626149,-73.940598,"1792 FLATBUSH AVE, BROOKLYN, NY 11210",,,,,,,,,,,,
198,"37 DELI GROCERY INC , 37 DELI GROCERY 06/01/1",728920,,,,JAC,40.858864,-73.905352,"37 WEST 183RD STREET, BRONX, NY 10453",,,,,,,,,,,,
10524,"37 MEAT CORP , 37 MEAT",731492,,,,JAC,,0.000000,"99 14 37TH AVENUE, CORONA, NY 11368",,,,,,,,,,,,
10845,"37-54 MEAT&PRODUCE INC , ASSOCIATED",637089,,,,JABC,,0.000000,"37 54 90TH ST, JACKSON HEIGHTS, NY 11372",,,,,,,,,,,,
10523,"37-63 GROCERY FOOD CORP , 37-63 GROCERY FOOD",723958,,,,A,,0.000000,"37 63 88TH STREET, JACKSON HEIGHTS, NY 11372",,,,,,,,,,,,
10526,"37TH AVE GROCERY DELI INC , 37TH AVE GROCERY DELI",639007,,,,JAC,,0.000000,"90 01 37TH AVE, JACKSON HEIGHTS, NY 11372",,,,,,,,,,,,
10525,"37TH AVE GROCERY INC , 37TH AVE GROCERY",706824,,,,A,,0.000000,"82 06 37TH AVE, JACKSON HEIGHTS, NY 11372",,,,,,,,,,,,
11604,"37TH AVE MARKET INC , FOOD BAZAAR",632960,,,,JAC,,0.000000,"35 60 JUNCTION BLVD, CORONA, NY 11368",,,,,,,,,,,,
2735,"38 DELI GROCERY CORP , 38 DELI GROCERY",716577,,,,JAC,40.723439,-73.940477,"38 DRIGGS AVE, BROOKLYN, NY 11222",,,,,,,,,,,,
13166,"38-06 29 STREET CORP , SHOPPERS CORNER GRCY&CN",630555,,,,A,,0.000000,"38 06 29TH ST, LONG ISLAND CITY, NY 11101",,,,,,,,,,,,
10330,"38TH STREET BAKERY LLC , WESTSIDE BAKERY",710924,,,,JABCHK,40.755668,-73.993925,"350 WEST 38TH STREET, NEW YORK, NY 10018",,,,,,,,,,,,
2739,"39 LOTT GROCERY INC , 39 LOTT GROCERY",611029,,,,JAC,40.657240,-73.912434,"39 LOTT AVE, BROOKLYN, NY 11212",,,,,,,,,,,,
10527,"39-18 CORONA CANDY STORE CORP , 3918 CANDY&GROCERY",639358,,,,A,,0.000000,"39 18 103RD ST, CORONA, NY 11368",,,,,,,,,,,,
11700,"40TH AVE GOURMET DELI CORP , F&Z 40TH AVE GOURMET DE",715986,,,,JAC,40.755632,-73.942018,"1313 40TH AVE, LONG ISLAND CITY, NY 11101",,,,,,,,,,,,
9192,"40TH STREET 99 CENT CORP , JACKS 99",622950,,,,A,40.751779,-73.980802,"16 E 40TH ST, NEW YORK, NY 10016",,,,,,,,,,,,
2750,"40TH STREET DELI & GRILL CORP , 40TH ST DELI & GRILL",672220,,,,JAC,40.652466,-74.006240,"3921 4TH AVE, BROOKLYN, NY 11232",,,,,,,,,,,,
209,"41 FANTASY FOOD CENTER INC , 41 FANTASY FOOD CENTER",727533,,,,JAC,40.852143,-73.922248,"41 RICHMAN PLAZA, BRONX, NY 10453",,,,,,,,,,,,
2751,"41 GROCERY DELI & GRILL CORP. , 41 GROCERY DELI & GRILL",718611,,,,JAC,40.657256,-73.903381,"41 NEW LOTS AVENUE, BROOKLYN, NY 11212",,,,,,,,,,,,
10533,"41-17 CANELAS DELI GROCERY CORP , 41-17 CANELAS DELI GROC",718304,,,,JAC,,0.000000,"41 17 108TH ST, CORONA, NY 11368",,,,,,,,,,,,
12741,"41-55 MAIN ST INC , ON THE LUCK",634352,,,,A,,0.000000,"41 55 MAIN ST, FLUSHING, NY 11355",,,,,,,,,,,,
10535,"42-01 GOURMET DELI INC , 42-01 GOURMET DELI",672015,,,,JAC,,0.000000,"42 01 30TH AVE, ASTORIA, NY 11103",,,,,,,,,,,,
12849,"42-15 81ST GROCERY & DELI INC , PRODUCTOS MEXICANOS",712211,,,,JAC,,0.000000,"42 64 81ST ST, ELMHURST, NY 11373",,,,,,,,,,,,
12164,"42-15 FOOD CORP , KEY FOOD SUPERMARKET",636738,,,,JAC,,0.000000,"42 15 30TH AVE, ASTORIA, NY 11103",,,,,,,,,,,,
7878,"43RD DELI CORP THE , 43RD DELI THE",622795,,,,JAC,40.760502,-73.994848,"600 10TH AVE, NEW YORK, NY 10036",,,,,,,,,,,,
2754,"44 DELI & RESTAURANT CORP , 44 DELI & RESTAURANT",732435,,,,JAC,40.683389,-73.979084,"44 4TH AVENUE, BROOKLYN, NY 11217",,,,,,,,,,,,
215,"45 RICHMAN PLAZA DELI GROCERY COR , 45 RICHMAN PLAZA DELI G",719169,,,,JAC,40.852230,-73.922168,"45 RICHMAN PLAZA, BRONX, NY 10453",,,,,,,,,,,,
10537,"45-14 NATIONAL GROCERY CORP , 45-14 NATIONAL GROCERY",636170,,,,JAC,,0.000000,"45 14 NATIONAL ST, CORONA, NY 11368",,,,,,,,,,,,
2759,"46TH STREET FOOD CENTER INC , 46TH STREET FOOD CTR",617877,,,,JAC,40.639981,-73.995815,"1048 46TH ST, BROOKLYN, NY 11219",,,,,,,,,,,,
7883,"47 DIVISION STREET TRADING INC , 47 DIVISION ST TRADING",620979,,,,JACK,40.714205,-73.995252,"47 DIVISION ST, NEW YORK, NY 10002",,,,,,,,,,,,
7884,"47 PITT GROCERY INC , 47 PITT GROCERY",627543,,,,JAC,40.717311,-73.982991,"47 PITT ST, NEW YORK, NY 10002",,,,,,,,,,,,
7885,"47 ROCKEFELLER INC , 47 ROCKEFELLER",725079,,,,JAC,,0.000000,"1196 AVE, NEW YORK, NY 10036",,,,,,,,,,,,
10538,"47TH STOP DELI GROCERY INC , 47TH STOP DELI GROCERY",702695,,,,JAC,,0.000000,"47 02 47TH AVE, WOODSIDE, NY 11377",,,,,,,,,,,,
10539,"48 BODEGA INC , 48 BODEGA",705355,,,,JAC,,0.000000,"47 20A, ASTORIA, NY 11103",,,,,,,,,,,,
1136,"48 BURNSIDE FOOD CORP , FOOD DYNASTY SUPERMARKE",601535,,,,JAC,40.853877,-73.909231,"40 48 W BURNSIDE AVE, BRONX, NY 10453",,,,,,,,,,,,
10540,"48TH STREET DELI & GROCERY INC , 48TH STREET DELI & GROC",718669,,,,JAC,40.760782,-73.908360,"4802 30TH AVENUE, ASTORIA, NY 11103",,,,,,,,,,,,
10408,"50 EAST END AVENUE LLC , YURA AT COLEMANS DELI",706327,,,,JAC,40.772082,-73.946834,"50 EAST END AVE, NEW YORK, NY 10028",,,,,,,,,,,,
221,"50 STAR DELI GROCERY MARKET INC , 50 STAR DELI GROCERY MA",702307,,,,JAC,40.822404,-73.903273,"928 TINTON AVE, BRONX, NY 10456",,,,,,,,,,,,
1137,"50 VAN CORTLANDT FOOD CORP , FOOD DYNASTY SUPERMKT",607578,,,,JAC,40.883104,-73.892904,"50 VAN CORTLANDT AVE W, BRONX, NY 10463",,,,,,,,,,,,
13470,"50-01 MEAT CORP , URBAN MARKET",712692,,,,JAC,,0.000000,"50 01 2ND ST, LONG ISLAND CITY, NY 11101",,,,,,,,,,,,
12124,"50-18 MEAT CORP , KEY FOOD",630933,,,,JABC,,0.000000,"50 18 SKILLMAN AVE, WOODSIDE, NY 11377",,,,,,,,,,,,
2778,"51 DELI & GROCERY NYC INC , 51 DELI & GROCERY NYC",710549,,,,JAC,40.655877,-73.909986,"51 HEGEMAN AVE, BROOKLYN, NY 11212",,,,,,,,,,,,
7893,"51 EAST BROADWAY MARKET INC , 51 EAST BROADWAY MARKET",701940,,,,JAC,40.713600,-73.995653,"51 E BROADWAY, NEW YORK, NY 10002",,,,,,,,,,,,
10546,"51 FRESH BAKERY INC , 51 FRESH BAKERY",735167,,,,JAC,,0.000000,"50 17 SKILLMAN AVE, WOODSIDE, NY 11377",,,,,,,,,,,,
2779,"51 M & A DELI GROCERY CORP , 51 M & A DELI GROCERY",730811,,,,JAC,40.679625,-73.892876,"51 ARLINGTON AVENUE, BROOKLYN, NY 11207",,,,,,,,,,,,
10545,"51-02 KINGS DELI CORP , 51-02 KINGS DELI",671063,,,,JAC,,0.000000,"51 02 31ST AVE, WOODSIDE, NY 11377",,,,,,,,,,,,
2784,"53 BUFFALO DELI INC , 53 BUFFALO DELI",712826,,,,JAC,40.677279,-73.924771,"53 BUFFALO AVENUE, BROOKLYN, NY 11233",,,,,,,,,,,,
2785,"53 STLEX AVESUBWAYUP&DOWNNEWS INC , 53STLEXAVESUBWAYUP&DOWN",612035,,,,A,,0.000000,,,,,,,,,,,,,
2786,"53STLEXAVESUBWAYUP&DWNNEWSSTNDINC , 53STLEXAVESUBWAYUP&DOWN",612197,,,,A,,0.000000,,,,,,,,,,,,,
7898,"55 FULTON MARKET CORP , 55 FULTON MARKET",703266,,,,JABC,40.708419,-74.004808,"55 FULTON ST, NEW YORK, NY 10038",,,,,,,,,,,,
7901,57 BAYARD MEAT MARKET,628945,NYC Chinese Supermarket Closure March/April 2020,3/30/2020 6:43pm,,Supermarket,40.715369,-73.997748,"57 BAYARD ST, NEW YORK, NY 10013",,checked,,,,,,,,,,Open For Now
7902,"57 CLINTON DELI, INC , 57 CLINTON DELI",722303,,,,JAC,40.719558,-73.984816,"57 CLINTON STREET, NEW YORK, NY 10002",,,,,,,,,,,,
10547,"57 FOOD MARKET CORP , 57 FOOD MARKET",671334,,,,JAC,,0.000000,"57 11 SHORE FRONT PKWY, ARVERNE, NY 11692",,,,,,,,,,,,
7903,"57 GROCERY CORP , 57 GROCERY CORP",730399,,,,JAC,40.717669,-73.982795,"57 PITT ST, NEW YORK, NY 10002",,,,,,,,,,,,
7904,"57 MARKET INC , 57 MARKET",626893,,,,JAC,40.767837,-73.985500,"363 W 57TH ST, NEW YORK, NY 10019",,,,,,,,,,,,
11609,"57TH AVENUE MARKET INC , FOOD BAZAAR SUPERMARKET",632118,,,,JABC,,0.000000,"97 27 57TH AVE, CORONA, NY 11368",,,,,,,,,,,,
234,"58 BURNSIDE FOOD CORP , 58 BURNSIDE FOOD",608944,,,,JAC,40.854247,-73.909838,"58 60 W BURNSIDE AVE, BRONX, NY 10453",,,,,,,,,,,,
10548,"58 DELI&GROCERY CORP , 58 DELI&GROCERY",639327,,,,JAC,,0.000000,"37 63 58TH ST, WOODSIDE, NY 11377",,,,,,,,,,,,
7906,59 BAYARD MARKET,627797,NYC Chinese Supermarket Closure March/April 2020,3/31/2020 12:00am,,Supermarket,40.715397,-73.997831,"59 BAYARD ST, NEW YORK, NY 10013",,checked,,,,,,,,,,Open for now
9561,"59-5 FRUIT & VEGETABLE CORP , MERCI MARKET",723261,,,,JAC,40.735123,-73.994251,"59 5TH AVENUE, NEW YORK, NY 10003",,,,,,,,,,,,
606,"60 WEST 183RD ST FOOD CORP , BRAVO SUPERMARKET",604884,,,,JAC,40.859129,-73.906094,"60 W 183RD ST, BRONX, NY 10453",,,,,,,,,,,,
5778,"60TH ST FLEISCH GESHEFT , MEAL MART",617754,,,,JAC,40.619586,-73.983217,"1973 60TH ST, BROOKLYN, NY 11204",,,,,,,,,,,,
2817,"60TH STREET CONVENIENCE INC , 60TH STREET CONVENIENCE",710344,,,,JAC,40.633094,-74.005565,"6001 FT HAMILTON PKWY, BROOKLYN, NY 11219",,,,,,,,,,,,
10553,"61-01 BIG APPLE DELI GROCERY CORP , 61-01 BIG APPLE DELI GR",718044,,,,JAC,,0.000000,"61 01 GRAND AVE, MASPETH, NY 11378",,,,,,,,,,,,
11680,"63 SUPER MART INC , FRESH VALUE MRKTPLACE",670321,,,,JAC,,0.000000,"95 07 63RD DR, REGO PARK, NY 11374",,,,,,,,,,,,
10558,"63-28 99TH ST FARM LTD , 63-28 99TH ST FARM",638108,,,,JAC,,0.000000,"63 28 99TH ST, REGO PARK, NY 11374",,,,,,,,,,,,
10019,"64 FULTON ST FOOD CORP , SEAPORT DELI",721849,,,,JAC,40.708830,-74.005142,"64 FULTON STREET, NEW YORK, NY 10038",,,,,,,,,,,,
2138,"65 BURNSIDE MEAT MARKET CORP , SAGAL FOOD",720340,,,,JAC,40.853383,-73.906207,"65 E BURNSIDE AVE, BRONX, NY 10453",,,,,,,,,,,,
7911,"65 LENOX DELI CORP , 65 LENOX DELI",719775,,,,JAC,40.800338,-73.951002,"65A LENOX AVE, NEW YORK, NY 10026",,,,,,,,,,,,
10562,"66 MYRTLE AVE DELI & GROCERY INC , 66 MYRTLE AVE DELI & GR",707914,,,,JAC,,0.000000,"66 01 MYRTLE AVE, RIDGEWOOD, NY 11385",,,,,,,,,,,,
10560,"66-16 MEAT&PRODUCE INC , 66-16 MEAT&PRODUCE",670350,,,,JAC,,0.000000,"66 BEACH CHANNEL DR, ARVERNE, NY 11692",,,,,,,,,,,,
12126,"66-56 MEAT CORP , KEY FOOD",732856,,,,JAC,,0.000000,"66 56 GRAND AVE, MASPETH, NY 11378",,,,,,,,,,,,
10563,"68 SUTPHIN DELI AND GRILL INC , 68 SUTPHIN DELI AND GRI",735091,,,,JAC,40.704983,-73.809333,"8768 SUTPHIN BLVD, JAMAICA, NY 11435",,,,,,,,,,,,
2829,"68TH ST GOURMET DELI CORP , 68TH ST GOURMET DELI",718598,,,,JAC,40.636273,-74.025823,"6803 3RD AVENUE, BROOKLYN, NY 11220",,,,,,,,,,,,
251,"69 DELI ABD TOBACCO CORP , 69 DELI AND TOBACCO",718850,,,,JAC,40.846382,-73.917280,"69 71 FEATHERBERD LN, BRONX, NY 10452",,,,,,,,,,,,
12486,"69-21 MINI MARKET INC , MINI MARKET",636999,,,,JAC,,0.000000,"69 21 MYRTLE AVE, GLENDALE, NY 11385",,,,,,,,,,,,
10565,"69TH ST BEER DIST INC , 69TH ST BEER DIST",635615,,,,A,,0.000000,"55 13 69TH ST, MASPETH, NY 11378",,,,,,,,,,,,
8346,"70 CEDAR PEARL LLC , CITY ACRES MARKET",729261,,,,JAC,40.706208,-74.007740,"70 PINE ST, NEW YORK, NY 10005",,,,,,,,,,,,
8866,"70-72 MEAT&PRODUCE CORP , FOOD UNIVERSE MARKET PL",629158,,,,JAC,40.860276,-73.928343,"70 72 NAGLE AVE, NEW YORK, NY 10040",,,,,,,,,,,,
10567,"71ST SWEET DELI CORP , 71ST SWEET DELI 02/15/1",727372,,,,JAC,,0.000000,"60 50 71ST AVENUE, RIDGEWOOD, NY 11385",,,,,,,,,,,,
7917,"72 APPLE FARM GROCERY CORP , 72 GOURMET DELI SALAD &",706563,,,,JAC,40.767071,-73.954254,"434 E 72ND ST, NEW YORK, NY 10021",,,,,,,,,,,,
2843,"72 LUCKY LOTTO INC , 72 LUCKY LOTTO",611898,,,,JAC,40.633408,-74.026995,"7201 3RD AVE, BROOKLYN, NY 11209",,,,,,,,,,,,
2844,"72ST GROCERY INC , 72 ST GROCERY",719034,,,,A,40.621859,-74.005813,"7206 13TH AVE, BROOKLYN, NY 11228",,,,,,,,,,,,
2846,"73 FOOD MARKET CORP , 73 FOOD MARKET",708710,,,,JAC,40.680617,-73.940647,"73 DECATUR ST, BROOKLYN, NY 11216",,,,,,,,,,,,
2847,"73 GASOLINE CORP , 73 GASOLINE",703557,,,,JAC,40.616907,-73.999629,"7310 NEW UTRECHT AVE, BROOKLYN, NY 11204",,,,,,,,,,,,
10568,"73 GROCERY DELI INC , 73 GROCERY DELI",730339,,,,JAC,,0.000000,"172 22 HILLSIDE AVE, JAMAICA, NY 11432",,,,,,,,,,,,
260,"73 HN GROCERY CORP , 73 HN GROCERY",706616,,,,JAC,40.866717,-73.895668,"73 E KINGSBRIDGE RD, BRONX, NY 10468",,,,,,,,,,,,
2848,"73RD ST GOURMET DELI CORP , 73RD ST GOURMET DELI",732160,,,,JAC,40.631054,-74.022010,"7223 5TH AVENUE, BROOKLYN, NY 11209",,,,,,,,,,,,
7919,"74 NAGLE DELI GROCERY INC , 74 NAGLE DELI GROCERY",724967,,,,JAC,40.860323,-73.928217,"74 NAGLE AVENUE, NEW YORK, NY 10040",,,,,,,,,,,,
11205,"74-39 MEAT CORP , C TOWN SUPERMARKET",630709,,,,JABC,40.691210,-73.867806,"74 39 JAMAICA AVE, WOODHAVEN, NY 11421",,,,,,,,,,,,
10569,"74TH ST GOURMET DELI THREE CORP , 74TH ST GOURMET DELI",734075,,,,JAC,,0.000000,"73 21 METROPOLITAN AVE, MIDDLE VILLAGE, NY 11379",,,,,,,,,,,,
10570,"74TH ST ONE GOURMET DELI INC , 74TH ST ONE GOURMET DEL",722976,,,,JAC,,0.000000,"73 21 METROPOLITAN AVE, MIDDLE VILLAGE, NY 11379",,,,,,,,,,,,
2851,"76 CUCCIS DELI INC , 76 CUCCIS DELI",732944,,,,JAC,40.612677,-73.996707,"7602 18TH AVENUE, BROOKLYN, NY 11214",,,,,,,,,,,,
7921,"76 GOURMET DELI INC , 76 GOURMET DELI",725964,,,,JAC,40.769995,-73.954399,"1448 1ST AVE, NEW YORK, NY 10021",,,,,,,,,,,,
7922,"76 MADISON GROCERY CORP , 76 MADISON GROCERY",714127,,,,JAC,40.712115,-73.996729,"76 MADISON ST, NEW YORK, NY 10002",,,,,,,,,,,,
7923,"77 AVE D GROCERY STORE CORP , 77 AVE D GROCERY STORE",724287,,,,JAC,40.723130,-73.979550,"77 AVENUE, NEW YORK, NY 10009",,,,,,,,,,,,
8291,"77 CANDY STORE LLC , CANDY STORE",628629,,,,JAC,40.704409,-74.008481,"77 WATER ST, NEW YORK, NY 10005",,,,,,,,,,,,
10575,"77 GOURMET DELI INC , 77 GOURMET DELI",715559,,,,JAC,,0.000000,"77 20 101 AVENUE, OZONE PARK, NY 11416",,,,,,,,,,,,
2854,"77 GOURMET DELI OF BAY RIDGE INC. , 77 GOURMET DELI",733145,,,,JAC,40.627981,-74.023246,"7625 5TH AVENUE, BROOKLYN, NY 11209",,,,,,,,,,,,
2855,"77 HEGEMAN MINI MARKET II CORP , 77 HEGEMAN MINI MARKET",718406,,,,JAC,40.655940,-73.909548,"77 HEGEMAN AVE, BROOKLYN, NY 11212",,,,,,,,,,,,
5267,"77 MEAT CORP , KEY FOOD",619599,,,,JAC,40.685631,-73.950622,"367 NOSTRAND AVE, BROOKLYN, NY 11216",,,,,,,,,,,,
2856,"77 STAR DELI CORP , 77 STAR DELI",725805,,,,JAC,40.664338,-73.887422,"577 NEW LOTS AVE, BROOKLYN, NY 11207",,,,,,,,,,,,
2860,"78 BIG SMILE CORP , 78 BIG SMILE 8/1/18",735087,,,,JAC,40.718202,-73.958315,"150 N 7TH STREET, BROOKLYN, NY 11249",,,,,,,,,,,,
9713,"78 COLUMBUS DELI INC , NEW MUSEUM DELI",627567,,,,JAC,40.781041,-73.976138,"370 COLUMBUS AVE, NEW YORK, NY 10024",,,,,,,,,,,,
10576,"78 QUICK DELI CORP , 78 QUICK DELI",727739,,,,JAC,,0.000000,"78 21 ATLANTIC AVE, WOODHAVEN, NY 11421",,,,,,,,,,,,
10335,"78-84 WESTSIDE MARKET LLC , WESTSIDE MARKET",711658,,,,JAC,40.731713,-73.988335,"78 84 THIRD AVE, NEW YORK, NY 10003",,,,,,,,,,,,
10581,"79 DELI & GROCERY STORE CORP , 79 DELI & GROCERY STORE",712022,,,,JAC,,0.000000,"37 71 79TH ST, JACKSON HEIGHTS, NY 11372",,,,,,,,,,,,
8198,"79 DELI NY CORP , BETHEL GOURMET FOOD",732672,,,,JAC,40.736931,-74.001307,"79 GREENWICH AVE, NEW YORK, NY 10014",,,,,,,,,,,,
10397,"79 GOURMET DELI INC , YORK DELI",729450,,,,JAC,40.771232,-73.950557,"1492 YORK AVENUE, NEW YORK, NY 10075",,,,,,,,,,,,
2863,"79 GREEN APPLE CORP , 79 GREE APPLE",718268,,,,JAC,40.697958,-73.992233,"85 PINEAPPLE WALK, BROOKLYN, NY 11201",,,,,,,,,,,,
2864,"79 LIVONIA FOOD CORP , 79 LIVONIA FOOD",716972,,,,JAC,40.661647,-73.915056,"79 LIVONIA AVE, BROOKLYN, NY 11212",,,,,,,,,,,,
2865,"79TH ST GOURMET AND DELI INC , 79TH ST GOURMET AND DEL",719140,,,,JAC,,0.000000,"7818 NEW, BROOKLYN, NY 11214",,,,,,,,,,,,
10636,"80TH ST DELI&GROCERY INC , 80TH ST DELI&GROCERY",633672,,,,JAC,,0.000000,"80 01 JAMAICA AVE, WOODHAVEN, NY 11421",,,,,,,,,,,,
2900,"80TH STREET DELI INC , 80TH STREET DELI",729683,,,,JAC,40.625478,-74.024273,"8014 5TH AVE, BROOKLYN, NY 11209",,,,,,,,,,,,
6547,"80TH STREET PHARMACY INC , PURE HEALTH PHARMACY",708301,,,,A,40.610121,-73.999289,"8014 18TH AVE, BROOKLYN, NY 11214",,,,,,,,,,,,
7983,"82 CORNER MARKET INC , 82 CORNER MARKET",627330,,,,JAC,40.774179,-73.951339,"1576 1ST AVE, NEW YORK, NY 10028",,,,,,,,,,,,
2903,"82 FOOD CORP , 82 FOOD",616424,,,,JAC,40.660251,-73.908331,"800 ROCKAWAY AVE, BROOKLYN, NY 11212",,,,,,,,,,,,
10637,"82 MARKET INC , 82 MARKET",670920,,,,JAC,,0.000000,"40 17 82ND ST, ELMHURST, NY 11373",,,,,,,,,,,,
11629,"82-10 BAXTER AVE FOOD CORP , FOODTOWN",636073,,,,JAC,,0.000000,"82 10 BAXTER AVE, ELMHURST, NY 11373",,,,,,,,,,,,
2902,"82E DELI GROCERY INC , 82E DELI GROCERY",715555,,,,JAC,40.649190,-73.963020,"82 E 18TH ST, BROOKLYN, NY 11226",,,,,,,,,,,,
2904,"82ND ST DELI & GROCERY LLC , 82ND ST DELI & GROCERY",734903,,,,JAC,40.624532,-74.024661,"8126 5TH AVENUE, BROOKLYN, NY 11209",,,,,,,,,,,,
10638,"82ND STREET DELI CORP , 82ND STREET DELI",731774,,,,A,,0.000000,"82 02 ROOSEVELT AVE, JACKSON HEIGHTS, NY 11372",,,,,,,,,,,,
7984,"82ND STREET GROCERY INC , 82ND STREET GROCERY",629208,,,,JAC,40.784983,-73.976985,"454 AMSTERDAM AVE, NEW YORK, NY 10024",,,,,,,,,,,,
10639,"84TH EXPRESS DELI & GROCERY INC , 84TH EXPRESS DELI & GRO",731489,,,,JAC,,0.000000,"83 19 101ST AVE, OZONE PARK, NY 11416",,,,,,,,,,,,
7988,"84TH STR CORNER DELI CORP , 84TH STR CORNER DELI",718672,,,,JAC,40.776668,-73.952606,"1624 2ND AVE, NEW YORK, NY 10028",,,,,,,,,,,,
7989,"85 DELI MINI MARKET CORP , 85 DELI MINI MARKET",629006,,,,JAC,40.868828,-73.917749,"5008 BROADWAY, NEW YORK, NY 10034",,,,,,,,,,,,
11054,"85-09 JAMAICA AVE CORP , CANDY STORE",635006,,,,A,,0.000000,"85 09 JAMAICA AVE, WOODHAVEN, NY 11421",,,,,,,,,,,,
10640,"85TH STREET DELI INC , 85TH STREET DELI INC",710673,,,,JAC,,0.000000,"85 01 JAMAICA AVENUE, WOODHAVEN, NY 11421",,,,,,,,,,,,
2911,"86 B'KLYN GROCERY INC , 86 B'KLYN GROCERY",617468,,,,A,40.599419,-73.989671,"2377 86TH ST, BROOKLYN, NY 11214",,,,,,,,,,,,
4825,"86 GREEN CORP , GREEN BAZZAR & DISCOUNT",727120,,,,JAC,40.642582,-73.979963,"86 CHURCH AVENUE, BROOKLYN, NY 11218",,,,,,,,,,,,
10641,"86 GROCERY & DELI INC , 86 GROCERY & DELI",711753,,,,JAC,,0.000000,"85 19 JAMAICA AVE, WOODHAVEN, NY 11421",,,,,,,,,,,,
2913,"86 PHARMACY INC , 86 PHARMACY",713179,,,,A,40.604012,-73.997268,"2042 86TH ST, BROOKLYN, NY 11214",,,,,,,,,,,,
2914,"86 ST TOBACCO SHOP CORP , 86 ST TOBACCO SHOP",732246,,,,A,40.620622,-74.024775,"554 86TH STREET, BROOKLYN, NY 11209",,,,,,,,,,,,
2918,"86 TOBACCO & CONVENIENCE CORP , 86 TOBACCO & CONVENIENC",724786,,,,A,40.623481,-74.028088,"8511 4TH AVENUE, BROOKLYN, NY 11209",,,,,,,,,,,,
11145,"86-02 MEAT&PRODUCE INC , COMPARE FOODS",638748,,,,JAC,,0.000000,"86 02 NORTHERN BLVD, JACKSON HEIGHTS, NY 11372",,,,,,,,,,,,
8511,"86-17 NORTHERN BLVD CORP , DESPANA",628249,,,,JAC,40.721064,-73.998196,"408 BROOME ST, NEW YORK, NY 10013",,,,,,,,,,,,
2915,"86TH ST GOURMET DELI & GRILL INC , 86TH ST GOURMET DELI &",733523,,,,JAC,40.607709,-74.002086,"8523 18TH AVENUE, BROOKLYN, NY 11214",,,,,,,,,,,,
2916,"86TH ST MEAT DELI CORP , 86TH ST MEAT DELI",730970,,,,JAC,40.623428,-74.030909,"302 86TH STREET, BROOKLYN, NY 11209",,,,,,,,,,,,
2917,"86TH STREET GROCERY INC , 86TH STREET GROCERY",712106,,,,A,40.605718,-74.000101,"1910 86TH STREET, BROOKLYN, NY 11214",,,,,,,,,,,,
4679,"86TH STREET GROCERY&SNACKS INC , GAMAL MINI MART",613597,,,,JAC,40.602135,-73.994126,"2176 86TH ST, BROOKLYN, NY 11214",,,,,,,,,,,,
2912,"86TH STREET OPTIMO CENTER INC , 86 OPTIMO CENTER",619154,,,,A,40.611125,-74.009044,"1516 86TH ST, BROOKLYN, NY 11228",,,,,,,,,,,,
7991,"87 ST DELI INC , 87 ST DELI INC",628070,,,,JAC,40.777378,-73.948994,"1665 1ST AVE, NEW YORK, NY 10028",,,,,,,,,,,,
7990,"87 ST DELI INC 1 , 87 ST DELI",723339,,,,JAC,40.788472,-73.974444,"562 AMSTERDAM AVE, NEW YORK, NY 10024",,,,,,,,,,,,
10642,"87TH ROAD MINI MARKET INC , 87TH ROAD MINI MARKET",715774,,,,JAC,,0.000000,"144 03 87TH RD, JAMAICA, NY 11435",,,,,,,,,,,,
13105,"87TH STREET GROCERY & DELI INC , SAMS DELI",636526,,,,JAC,,0.000000,"87 08 JAMAICA AVE, WOODHAVEN, NY 11421",,,,,,,,,,,,
2920,"87TH STREET ORGANIC INC. , 87TH STREET ORGANIC",727660,,,,JAC,40.622850,-74.031318,"8623 3RD AVENUE, BROOKLYN, NY 11209",,,,,,,,,,,,
10644,"88 DELI GROCERY INC , 88 DELI GROCERY",639783,,,,JAC,,0.000000,"88 01 JAMAICA AVE, WOODHAVEN, NY 11421",,,,,,,,,,,,
2922,"88 MARKET INC , 88 MARKET",724171,,,,A,40.643289,-74.001478,"4614 8TH AVENUE, BROOKLYN, NY 11220",,,,,,,,,,,,
10646,"89 DELI & GROCERY INC , 89 DELI & GROCERY",710637,,,,JAC,,0.000000,"164 03 89TH AVE, JAMAICA, NY 11432",,,,,,,,,,,,
13433,"89-02 FOOD CORP , TRADE FAIR 9",636452,,,,JAC,,0.000000,"89 02 37TH AVE, JACKSON HEIGHTS, NY 11372",,,,,,,,,,,,
10645,"89-31 FOOD CORP , 89-31 FOOD",639636,,,,JAC,,0.000000,"89 31 161ST ST, JAMAICA, NY 11432",,,,,,,,,,,,
9594,"89TH STREET MARKET INC , MILANO MARKET",720534,,,,JAC,40.780626,-73.952637,"1582 3RD AVE, NEW YORK, NY 10128",,,,,,,,,,,,
10648,"90 ST MINI SHOP INC , 90 ST MINI SHOP",727345,,,,A,,0.000000,"90 22 JAMAICA AVE, WOODHAVEN, NY 11421",,,,,,,,,,,,
2928,"90 SULLIVAN DELI MARKET CORP , 90 SULLIVAN DELI MARKET",728889,,,,JAC,40.664243,-73.958188,"90 SULLIVAN, BROOKLYN, NY 11225",,,,,,,,,,,,
458,"90 W 165TH ST FOOD CORP , ANTILLANA MEAT MARKET",732228,,,,JAC,40.834040,-73.927327,"90 W 165TH STREET, BRONX, NY 10452",,,,,,,,,,,,
12812,"90-01 JARABACOA FOOD CORP , PIONEER SUPERMARKET",706096,,,,JAC,,0.000000,"90 01 JAMAICA AVE, WOODHAVEN, NY 11421",,,,,,,,,,,,
10647,"90-46 161 FOOD CORP , 90-46 161 FOOD",723335,,,,JAC,,0.000000,"90 46 161 STREET, JAMAICA, NY 11432",,,,,,,,,,,,
11168,"90-47 CORONA MINI MARKET CORP , CORONA MINI MARKET",716137,,,,JAC,,0.000000,"90 47 CORONA AVE, ELMHURST, NY 11373",,,,,,,,,,,,
10649,"90TH GROCERY & DELI INC , 90TH GROCERY & DELI",734096,,,,JAC,,0.000000,"90 01 37TH AVE, JACKSON HEIGHTS, NY 11372",,,,,,,,,,,,
10651,"91 AVE FAMILY FOOD CORP , 91 AVE FAMILY FOOD",702844,,,,JAC,,0.000000,"89 50 92ND ST, WOODHAVEN, NY 11421",,,,,,,,,,,,
7998,"91 CATHERINE GROCERY CORP , 91 CATHERINE GROCERY",627088,,,,JAC,40.823238,-73.950316,"91 HAMILTON PL, NEW YORK, NY 10031",,,,,,,,,,,,
11996,"91-06 GREEN GROCERY INC , JAMAICA GREEN GROCERY",639416,,,,JAC,,0.000000,"91 06 SUTPHIN BLVD, JAMAICA, NY 11435",,,,,,,,,,,,
10650,"91-08 STATION DELI CORP , 91-08 STATION DELI",639255,,,,JAC,,0.000000,"91 08 SUTPHIN BLVD, JAMAICA, NY 11435",,,,,,,,,,,,
12160,"92-02 MARKET CORP , KEY FOOD FRESH",729499,,,,JAC,,0.000000,"92 02 63RD DRIVE, REGO PARK, NY 11374",,,,,,,,,,,,
293,"93 DELI INC , 93 DELI",718008,,,,JAC,40.846267,-73.917993,"93 FEATHERBED LANE, BRONX, NY 10452",,,,,,,,,,,,
10653,"93RD DELI CORP I , 93RD DELI",716302,,,,JAC,,0.000000,"92 22 ASTORIA BLVD, EAST ELMHURST, NY 11369",,,,,,,,,,,,
7999,"94 ST NICHOLAS DELI INC , 94 ST NICHOLAS DELI",628987,,,,JAC,40.829961,-73.940362,"94 ST NICHOLAS PLACE, NEW YORK, NY 10032",,,,,,,,,,,,
10654,"94 STREET GROCERY CORP , 94 STREET GROCERY",670294,,,,A,40.751151,-73.873197,"3562 94TH ST, JACKSON HEIGHTS, NY 11372",,,,,,,,,,,,
13122,"94-15 JAMAICA AVE LLC , SCHMIDTS CONFECTIONERY",630460,,,,JAC,,0.000000,"94 15 JAMAICA AVE, WOODHAVEN, NY 11421",,,,,,,,,,,,
10655,"94TH DELI & GRILL INC , 94TH DELI & GRILL",733324,,,,JAC,40.694188,-73.850583,"9420 JAMAICA AVE, WOODHAVEN, NY 11421",,,,,,,,,,,,
11891,"95TH AVE GROCERY CORP , HEBA DELI",630694,,,,JAC,,0.000000,"96 25 95TH AVE, OZONE PARK, NY 11416",,,,,,,,,,,,
10658,"96 CANDY & GROCERY INC , 96 CANDY & GROCERY",730895,,,,A,,0.000000,"96 04 JAMIACA AVE, WOODHAVEN, NY 11421",,,,,,,,,,,,
8483,"96 DAN MEAT MARKET INC , DAN SUPERMARKET 2",628153,,,,JAC,40.863799,-73.925426,"96 SHERMAN AVE, NEW YORK, NY 10034",,,,,,,,,,,,
8001,"96 DELI CORP , 96 DELI",727217,,,,JAC,40.794347,-73.971062,"214 WEST 96TH STREET, NEW YORK, NY 10025",,,,,,,,,,,,
12496,"96 MEAT & PRODUCE CORP , MI TIERRA SUPERMARKET",716970,,,,JAC,,0.000000,"96 17 NORTHERN BLVD, CORONA, NY 11368",,,,,,,,,,,,
10660,"97 ADAMS DELI & GROCERY INC , 97 ADAMS DELI & GROCERY",711596,,,,JAC,,0.000000,"97 04 ROCKAWAY BLVD, SOUTH OZONE PARK, NY 11420",,,,,,,,,,,,
12218,"97 ELKO CORP , KYRIAKOS GROCERY",633079,,,,JAC,,0.000000,"26 03 23RD AVE, ASTORIA, NY 11105",,,,,,,,,,,,
8002,"97 TOBACCO SHOP INC , 97TOBACCO SHOP",725306,,,,A,40.795477,-73.971056,"2578 BROADWAY, NEW YORK, NY 10025",,,,,,,,,,,,
10659,"97-01 FOOD CORP , 97-01 FOOD",638818,,,,JAC,,0.000000,"97 01 37TH AVE, CORONA, NY 11368",,,,,,,,,,,,
12595,"97-10 QUEENS BLVD STORE LLC , NET COST MARKET",704971,,,,JAC,,0.000000,"97 10 QUEENS BLVD, REGO PARK, NY 11374",,,,,,,,,,,,
10661,"98-02 SUPERIOR DELI CORP , 98-02 SUPERIOR DELI",638813,,,,JAC,,0.000000,"98 02 ASTORIA BLVD, E ELMHURST, NY 11369",,,,,,,,,,,,
11113,"99 BOTTLES BEVERAGE CO INC , CIPOLLINI GOURMET ITALI",719538,,,,JAC,,0.000000,"116 09 QUEENS BLVD, FOREST HILLS, NY 11375",,,,,,,,,,,,
298,"99 C DISCOUNT PLUS CORP , 99 C DISCOUNT PLUS",709917,,,,A,40.815425,-73.906334,"644 WALES AVE, BRONX, NY 10455",,,,,,,,,,,,
13821,"99 CENT DISCOUNT WORLD INC , DISCOUNT WORLD",710585,,,,A,40.546967,-74.157516,"4255 AMBOY RD, STATEN ISLAND, NY 10308",,,,,,,,,,,,
2939,"99 CENT FOOD KING INC , 99 CENT FOOD KING",709412,,,,A,40.664618,-73.923392,"1100 RUTLAND RD, BROOKLYN, NY 11212",,,,,,,,,,,,
8005,"99 CENT MINI DEPOT INC , 99 CENT MINI DEPOT",628295,,,,A,40.821207,-73.939272,"2487 7TH AVE, NEW YORK, NY 10030",,,,,,,,,,,,
8012,"99 CENT WORLD & VARIETY CORP , 99 CENT WORLD & VARIETY",628495,,,,A,40.849705,-73.936196,"4242 BROADWAY, NEW YORK, NY 10033",,,,,,,,,,,,
2369,"99 CENTS & DOLLAR DEALS INC THE , THE 99 CENTS & DOLLAR",716008,,,,A,40.811814,-73.925829,"2590 3RD AVE, BRONX, NY 10454",,,,,,,,,,,,
300,"99 CENTS BEST INC , 99 CENTS BEST",711841,,,,A,40.855932,-73.895796,"2268 WEBSTER AVE, BRONX, NY 10457",,,,,,,,,,,,
2942,"99 CENTS BLESS STORE INC , 99 CENTS BLESS STORE",610599,,,,A,40.661985,-73.892753,"394 NEW LOTS AVE, BROOKLYN, NY 11207",,,,,,,,,,,,
8003,"99 CENTS CLASS INC , 99 CENT CLASS",626142,,,,A,40.858452,-73.931728,"4520 BROADWAY, NEW YORK, NY 10040",,,,,,,,,,,,
301,"99 CENTS DEALS LLC , 99 CENTS DEALS",714363,,,,A,40.862745,-73.903482,"53 W FORDHAM RD, BRONX, NY 10468",,,,,,,,,,,,
10666,"99 CENTS DYNASTY INC , 99 CENTS DYNASTY",718017,,,,A,,0.000000,"90 14 JAMAICA AVE, WOODHAVEN, NY 11421",,,,,,,,,,,,
303,"99 CENTS FACTORY INC , 99 CENTS FACTORY",609624,,,,JAC,40.817232,-73.922350,"278 E 149TH ST, BRONX, NY 10451",,,,,,,,,,,,
299,"99 CENTS OF SOUTHERN INC , 99 CENTS AMIGO",705535,,,,A,40.816014,-73.896530,"789 SOUTHERN BLVD, BRONX, NY 10455",,,,,,,,,,,,
304,"99 CENTS PAPA INC , 99 CENTS PAPA",707227,,,,A,40.814774,-73.914462,"512 E 149TH ST, BRONX, NY 10455",,,,,,,,,,,,
10667,"99 CENTS PARADISE PLUS INC , 99 CENTS PARADISE",639774,,,,A,,0.000000,"75 30 METROPOLITAN AVE, MIDDLE VILLAGE, NY 11379",,,,,,,,,,,,
305,"99 CENTS PLUS SUPERSTORE CORP , 99 CENTS PLUS SUPERSTOR",604008,,,,A,40.892054,-73.858131,"4148 WHITE PLAINS RD, BRONX, NY 10466",,,,,,,,,,,,
2946,"99 CENTS STOP OF BROOKLYN , 99 CENTS STOP OF BROOKL",729470,,,,A,40.669823,-73.906917,"375 MOTHER GASTON BLVD, BROOKLYN, NY 11212",,,,,,,,,,,,
2947,"99 CENTS STORE OF NI INC , 99 CENTS STORE",729310,,,,A,40.619870,-73.998776,"6915 NEW UTRECHT AVE, BROOKLYN, NY 11228",,,,,,,,,,,,
2952,"99 CENTS WORLD STORE INC , 99 CENTS WORLD STORE",709016,,,,A,40.655116,-73.950036,"1300 NOSTRAND AVE, BROOKLYN, NY 11226",,,,,,,,,,,,
316,"99 GRANT INC , 99 GRANT",725145,,,,A,40.833719,-73.915403,"233 E 167 ST, BRONX, NY 10456",,,,,,,,,,,,
9256,"99 JOHNS MARKET PLACE INC , JUBELEE MARKET PLACE",623272,,,,JABC,40.708064,-74.006243,"99 JOHN ST, NEW YORK, NY 10038",,,,,,,,,,,,
11344,"99 LIMON INC , DOLLAR GEM",719971,,,,A,,0.000000,"229 12 MERRICK BLVD, SPRINGFIELD GARDEN, NY 11413",,,,,,,,,,,,
2934,"99C AVE D INC , 99 C AVE D",731550,,,,A,40.640382,-73.948458,"1859 NOSTRAND AVENUE, BROOKLYN, NY 11226",,,,,,,,,,,,
11286,"99C HUT INC , DEALS",723926,,,,A,,0.000000,"110 42 MERRICK BLVD, JAMAICA, NY 11433",,,,,,,,,,,,
10674,"99C R US INC , 99C RUSH",638643,,,,A,,0.000000,"31 07 51ST ST, WOODSIDE, NY 11377",,,,,,,,,,,,
8774,"100 BROAD STREET LLC , ESSEN",724372,,,,JAC,40.703475,-74.011594,"100 BROAD ST, NEW YORK, NY 10004",,,,,,,,,,,,
14152,"100 GREAVES LANE MEAT LLC , SUPER FRESH",719779,,,,JAC,40.554043,-74.144608,"100 GREAVES LN, STATEN ISLAND, NY 10308",,,,,,,,,,,,
7687,"100 PRESTIGE DELI CORP , 100 PRESTIGE DELI",731324,,,,JAC,40.864627,-73.927815,"100 THAYER STREET, NEW YORK, NY 10040",,,,,,,,,,,,
7688,"100 ST QUICK 24 HR DELI INC , 100 ST QUICK 24HR DELI",732331,,,,JAC,40.797317,-73.970162,"219 W 100TH ST, NEW YORK, NY 10025",,,,,,,,,,,,
10419,"100-17 BEACH CHANNEL DRIVE CORP , 100-17 BEACH CHANNEL DR",633363,,,,JAC,,0.000000,"100 17 BEACH CHANNEL DR, ROCKAWAY BEACH, NY 11694",,,,,,,,,,,,
10422,"101 AVE CITY LINE DELI & GROCERY , 101 AVE CITY LINE DELI",731034,,,,JAC,40.679472,-73.862865,"7425 101ST AVENUE, OZONE PARK, NY 11416",,,,,,,,,,,,
10423,"101 AVE CONVENIENCE STORE INC , 101 AVE CONVENIENCE STO",708851,,,,JAC,,0.000000,"77 02 101ST AVE, OZONE PARK, NY 11416",,,,,,,,,,,,
10424,"101 AVE DELI GROCERY INC , 101 AVE DELI GROCERY 06",728919,,,,JAC,40.683711,-73.847953,"9215 101ST AVENUE, OZONE PARK, NY 11416",,,,,,,,,,,,
10425,"101 CORNER FOOD MART INC , 101 CORNER FOOD MART",710982,,,,JAC,,0.000000,"111 01 101 ST AVE, SOUTH RICHMOND HIL, NY 11419",,,,,,,,,,,,
10426,"101 DELI NY INC , 101 DELI NY",731058,,,,JAC,,0.000000,"120 22 101ST AVENUE, SOUTH RICHMOND HIL, NY 11419",,,,,,,,,,,,
7689,"101 FINEST DELI INC , 101 FINEST DELI",735096,,,,JAC,40.814809,-73.940429,"101 W 136TH ST, NEW YORK, NY 10030",,,,,,,,,,,,
10427,"101 HALAL DELI & GRILL INC , 101 HALAL DELI & GRILL",725316,,,,JAC,40.689667,-73.826999,"11719 101ST AVENUE, SOUTH RICHMOND HIL, NY 11419",,,,,,,,,,,,
9371,"101 LA ESPERANZA SUPERMARKET CORP , LA ESPERANZA SUPERMKT",624420,,,,JAC,40.841898,-73.937341,"101 AUDUBON AVE, NEW YORK, NY 10032",,,,,,,,,,,,
7690,"101 LENOX GOURMET DELI CORP , 101 LENOX GOURMET DELI",628886,,,,JAC,40.801467,-73.950175,"101 LENOX AVE, NEW YORK, NY 10026",,,,,,,,,,,,
9631,"101 MORONTA FOOD CORP , MORONTA GRCY",622827,,,,JAC,40.861910,-73.924956,"101 DYCKMAN ST, NEW YORK, NY 10040",,,,,,,,,,,,
7691,"101 NEWSTAND INC , 101 NEWSTAND",626297,,,,A,40.709002,-74.009009,"47 NASSAU ST, NEW YORK, NY 10005",,,,,,,,,,,,
7692,"101 SMOKE SHOP CORP , 101 SMOKE SHOP",724956,,,,A,40.798014,-73.969202,"2660 BROADWAY, NEW YORK, NY 10025",,,,,,,,,,,,
10429,"102 SPRINGFIELD GROCERY INC , 102 SPRINGFIELD GROCERY",715733,,,,JAC,,0.000000,"102 15 SPRINGFIELD BLVD, QUEENS VILLAGE, NY 11429",,,,,,,,,,,,
10428,"102-01 LUCKY STAR DELI & GROCERY , 102-01 LUCKY STAR DELI",723894,,,,JAC,,0.000000,"102 01 JAMAICA AVENUE, RICHMOND HILL, NY 11418",,,,,,,,,,,,
12123,"102-14 FOOD CORP , KEY FOOD",633759,,,,JAC,,0.000000,"102 14 37TH AVE, CORONA, NY 11368",,,,,,,,,,,,
7693,"103 MANHATTAN AVE GROCERY CORP , 103 MANHATTAN AVE GROC",624890,,,,JAC,40.796611,-73.962961,"62 MANHATTAN AVE, NEW YORK, NY 10025",,,,,,,,,,,,
10718,"103-02 METRO AVE CORP , AIGNER CHOCOLATES",720067,,,,JAC,,0.000000,"103 02 METROPOLITAN AVE, FOREST HILLS, NY 11375",,,,,,,,,,,,
8141,"103RD ST 99 CENT CORP , A TO Z 99 CENT STORE",629498,,,,A,40.798790,-73.968653,"2686 BROADWAY, NEW YORK, NY 10025",,,,,,,,,,,,
7694,"104 BROADWAY FARMS INC , 104 BROADWAY FARMS",626659,,,,JAC,40.799742,-73.968329,"2717 BROADWAY, NEW YORK, NY 10025",,,,,,,,,,,,
10432,"104 CANDY CORP , 104 ST CORP",703443,,,,A,,0.000000,"86 91 104TH ST, RICHMOND HILL, NY 11418",,,,,,,,,,,,
1146,"104-27 FOOD CORP , FOODTOWN #585",601611,,,,JAC,40.827850,-73.924752,"885 GERARD AVE, BRONX, NY 10452",,,,,,,,,,,,
7695,"105 DELI & GRILL INC , 105 DELI & GRILL",717422,,,,JAC,40.799930,-73.966093,"922 AMSTERDAM AVE, NEW YORK, NY 10025",,,,,,,,,,,,
7696,"106 99 CENTS CORP , 106 99 CENTS",709790,,,,A,40.802291,-73.950314,"106 W 116TH ST, NEW YORK, NY 10026",,,,,,,,,,,,
7697,"106 CANDY & CONVENIENCE CORP , 106 CANDY & CONVENIENCE",721052,,,,JAC,40.791007,-73.943350,"232 E 106TH STREET, NEW YORK, NY 10029",,,,,,,,,,,,
7698,"106 COLUMBIA DELI CORP , 106 COLUMBIA DELI",628933,,,,JAC,40.800718,-73.965524,"945 AMSTERDAM AVE, NEW YORK, NY 10025",,,,,,,,,,,,
10433,"106 DELI INC , 106 DELI",705492,,,,JAC,,0.000000,"105 31 LIBERTY AVE, OZONE PARK, NY 11417",,,,,,,,,,,,
7699,"106 FAMILY DELI & GROCERY INC , 106 FAMILY DELI & GROCE",714351,,,,JAC,40.790170,-73.941363,"318 E 106TH ST, NEW YORK, NY 10029",,,,,,,,,,,,
7700,"106 FRANKLIN DELI & GROCERY INC , 106 FRANKLIN DELI & GRO",722751,,,,JAC,40.789853,-73.940605,"346 E 106TH STREET, NEW YORK, NY 10029",,,,,,,,,,,,
7701,"107 DELI & GRILL INC , 107 DELI & GRILL",729580,,,,JAC,40.801268,-73.965114,"963 AMSTERDAM AVE, NEW YORK, NY 10025",,,,,,,,,,,,
10435,"107 DELI GROCERY CORP , 107 DELI GROCERY",639657,,,,JAC,,0.000000,"107 05 JAMAICA AVE, RICHMOND HILL, NY 11418",,,,,,,,,,,,
10436,"107 GROCERY INC , 107 GROCERY",724220,,,,JAC,,0.000000,"107 01 37TH AVENUE, CORONA, NY 11368",,,,,,,,,,,,
10437,"107 GUY CANDY GROCERY INC , 107 GUY CANDY GROCERY",639873,,,,A,,0.000000,"107 43 GUY R BREWER BLVD, JAMAICA, NY 11433",,,,,,,,,,,,
11578,"107 JAMAICA FOOD CORP , FINE FARE FRESH MARKET",723955,,,,JAC,,0.000000,"107 08 JAMAICA AVE, RICHMOND HILL, NY 11418",,,,,,,,,,,,
10438,"107 MINI MARKET CORP , 107 MINI MARKET",707647,,,,JAC,,0.000000,"107 47 SUTPHIN BLVD, JAMAICA, NY 11435",,,,,,,,,,,,
10439,"107 QUICK DELI CORP , 107 QUICK DELI",710281,,,,JAC,,0.000000,"106 59 GUY BREWER BLVD, JAMAICA, NY 11433",,,,,,,,,,,,
2583,"107 RALPH AVE CORP , 107 RALPH AVE",617669,,,,JAC,40.686464,-73.923420,"107 RALPH AVE, BROOKLYN, NY 11221",,,,,,,,,,,,
10440,"108 ABC MARKET INC , 108 ABC MARKET",715447,,,,A,,0.000000,"39 06 108TH STREET, CORONA, NY 11368",,,,,,,,,,,,
2585,"108 DELI GROCERY & COFFEE BAR COR , 108 DELI GROCERY & COFF",725217,,,,JAC,40.676791,-73.938719,"108 ALBANY AVE, BROOKLYN, NY 11213",,,,,,,,,,,,
10441,"108 GOURMET DELI INC , 108 GOURMET DELI",639470,,,,JAC,,0.000000,"108 02 GUY R BREWER BLVD, JAMAICA, NY 11433",,,,,,,,,,,,
10442,"108 NINOS CORP , 108 NINOS",717592,,,,A,,0.000000,"53 09 108TH ST, CORONA, NY 11368",,,,,,,,,,,,
10444,"108 STREET GROCERY CORP , 108TH STREET GROCERY",707882,,,,JAC,,0.000000,"57 18 108TH STREET, CORONA, NY 11368",,,,,,,,,,,,
10443,"108TH ST DELI & GROCERY INC , 108 ST DELI & GROCERY",718166,,,,JAC,,0.000000,"107 20 LIBERTY AVE, OZONE PARK, NY 11417",,,,,,,,,,,,
6,"109 AJ DELI GROCERY CORP , 109 AJ DELI GROCERY",712943,,,,JAC,40.850537,-73.907137,"109 E TREMONT AVE, BRONX, NY 10453",,,,,,,,,,,,
10445,"109 DAY & NIGHT GROCERY CORP , 109 DAY & NIGHT GROCERY",713233,,,,JAC,,0.000000,"108 20 JAMAICA AVE, RICHMOND HILL, NY 11418",,,,,,,,,,,,
12495,"109 MEAT & PRODUCE CORP , MI TIERRA SUPERMARKET",702001,,,,JAC,,0.000000,"109 01 37TH AVE, CORONA, NY 11368",,,,,,,,,,,,
7702,"109 SPICY GOURMET DELI INC , 109 SPICY GOURMET DELI",715091,,,,JAC,40.802237,-73.964391,"990 AMSTERDAM AVE, NEW YORK, NY 10025",,,,,,,,,,,,
10446,"110 SUTPHIN DELI GROCERY CORP , 110 SUTPHIN DELI GROCER",727219,,,,JAC,,0.000000,"110 10 SUTPHIN BLVD, JAMAICA, NY 11435",,,,,,,,,,,,
10447,"111 CORONA CANDY STORE INC , 111 CORONA CANDY STORE",638811,,,,JAC,,0.000000,"40 01 111TH ST, CORONA, NY 11368",,,,,,,,,,,,
10448,"111 DELI STOP CORP , 111 DELI STOP",702677,,,,JAC,,0.000000,"110 21 NORTHERN BLVD, CORONA, NY 11368",,,,,,,,,,,,
10449,111 FOOD MARKET,637564,NYCFPC- Elmhurst/Corona,3/31/2020 11:04am,(718) 672-1981,,40.751154,-73.855499,"111-01 41ST AVE, CORONA, NY 11368",,checked,,,,,,,,,No Delivery,
2590,"111 FRANKLIN DELI&GROCERY CORP , 111 FRANKLIN DELI&GRCY",670547,,,,JAC,40.729759,-73.957591,"111 FRANKLIN ST, BROOKLYN, NY 11222",,,,,,,,,,,,
7959,"111 FULTON ST RETAIL CORP , 7 ELEVEN STORE #36797",707584,,,,JAC,40.709742,-74.006760,"111 FULTON ST, NEW YORK, NY 10038",,,,,,,,,,,,
9159,"111 HUDSON MARKET INC , HUDSON MARKET",629421,,,,JAC,40.719660,-74.008641,"111 HUDSON ST, NEW YORK, NY 10013",,,,,,,,,,,,
6245,"111 NY 99 CENTS STORE INC , NY 99 CENTS STORE",706502,,,,A,40.608464,-74.001157,"8402 18TH AVE, BROOKLYN, NY 11214",,,,,,,,,,,,
9562,"111 SECOND FOOD CORP , MET FOODS",622451,,,,JAC,40.727707,-73.988304,"107 113 2ND AVE, NEW YORK, NY 10003",,,,,,,,,,,,
10450,"111 ST FAMILY GROCERY CORP , 111 ST FAMILY GROCERY",634297,,,,JAC,,0.000000,"39 19 111TH ST, CORONA, NY 11368",,,,,,,,,,,,
10451,"111 SUPER STOP CORP , 111 SUPER STOP",635306,,,,JAC,,0.000000,"111 12 37TH AVE, CORONA, NY 11368",,,,,,,,,,,,
7456,"112 CENTRAL AVENUE FOOD CORP , VITIS CORNER",726126,,,,JAC,40.700217,-73.928906,"112 CENTRAL AVE, BROOKLYN, NY 11221",,,,,,,,,,,,
10452,"113 DELI GROCERY INC , 113 DELI GROCERY",715951,,,,JAC,,0.000000,"112 27 JAMIACA AVE, RICHMOND HILL, NY 11418",,,,,,,,,,,,
10453,"113TH GOURMET DELI INC , 113TH GOURMET DELI",728021,,,,JAC,,0.000000,"113 21 JAMAICA AVE, RICHMOND HILL, NY 11418",,,,,,,,,,,,
8480,"115 W 57 MARKET INC , DALI MARKET",629275,,,,JAC,40.764716,-73.978124,"115 W 57TH ST, NEW YORK, NY 10019",,,,,,,,,,,,
7706,"116 DISCOUNT INC , 116 DISCOUNT",629482,,,,A,40.799729,-73.944226,"64 68 E 116TH ST, NEW YORK, NY 10029",,,,,,,,,,,,
4832,"116 GREEN BITES CORP , GREENE BITES",710735,,,,JAC,40.689803,-73.977747,"116 DEKALB AVE, BROOKLYN, NY 11201",,,,,,,,,,,,
10455,"116 ROCKAWAY PARK STATIONERS INC , 116 ROCKAWAY PARK STNRS",638862,,,,A,40.580097,-73.837280,"206 BEACH 116TH ST, ROCKAWAY PARK, NY 11694",,,,,,,,,,,,
7707,"116 STREET MARINI DELI GROCERY CO , 116 STREET MARINI DELI",730287,,,,JAC,40.798405,-73.941784,"1869A LEXINGTON AVE, NEW YORK, NY 10029",,,,,,,,,,,,
13516,"116-15 GMV CORP , VITELIO'S MARKETPLACE",634663,,,,JAC,,0.000000,"116 15 METROPOLITAN AVE, KEW GARDENS, NY 11415",,,,,,,,,,,,
7708,"116TH STREET FOOD FOR LESS INC , 116TH STREET FOOD",727064,,,,A,40.799061,-73.942645,"108 E 116TH ST, NEW YORK, NY 10029",,,,,,,,,,,,
6725,"117 BRIGHTON BEACH BKEY&DELI INC , ROCCOS BAKERY&DELI",617116,,,,JABCH,40.576349,-73.967516,"117 BRIGHTON BEACH AV, BROOKLYN, NY 11235",,,,,,,,,,,,
8822,"117 CORONA MEAT CORP , FINE FARE",624280,,,,JAC,40.802449,-73.949275,"136 LENOX AVE, NEW YORK, NY 10026",,,,,,,,,,,,
10197,"117 LEXINGTON INC , TASTY PICK DELI AND GRI",718744,,,,JAC,40.799115,-73.941265,"1878 LEXINTON AVENUE, NEW YORK, NY 10035",,,,,,,,,,,,
10456,"117-06 MERRICK BLVD GROCERY CORP , 117-06 MERRICK BLVD GRO",703122,,,,JAC,,0.000000,"117 06 MERRICK BLVD, JAMAICA, NY 11434",,,,,,,,,,,,
10457,"118-07 ALEXANDER DELI GROCERY COR , 118-07 ALEXANDER DELI G",716049,,,,JAC,,0.000000,"118 07 SUTPHIN BLVD, JAMAICA, NY 11434",,,,,,,,,,,,
7709,"119 A R GROCERY CORP , 119 A R GROCERY",711432,,,,JAC,40.861392,-73.929160,"119 ELLWOOD ST, NEW YORK, NY 10040",,,,,,,,,,,,
13,"120 CIRCLE DELI GROCERY INC , 120 CIRCLE DELI GROCERY",729581,,,,JAC,40.832689,-73.861145,"120 HUGU GRANT CIRCLE, BRONX, NY 10472",,,,,,,,,,,,
10458,"120 KING PRODUCE INC , 120 KING PRODUCE",703628,,,,JAC,,0.000000,"120 01 LIBERTY AVE, SOUTH RICHMOND HIL, NY 11419",,,,,,,,,,,,
7710,"121 CONVENIENCE DELI CORP , 121 CONVENIENCE DELI",702202,,,,JAC,40.802476,-73.950752,"121 WEST 116TH ST, NEW YORK, NY 10026",,,,,,,,,,,,
10459,"121 DELI INC , 121 DELI",707294,,,,JAC,,0.000000,"120 22 101 AVE, RICHMOND HILL, NY 11418",,,,,,,,,,,,
7712,"121 NEW YORK DELI GROCERY CORP , 121 NEW YORK DELI GROCE",721017,,,,JAC,40.802102,-73.939073,"1993 LEXINGTON AVE, NEW YORK, NY 10035",,,,,,,,,,,,
14,"123 MEAT FRUIT & VEGETABLE CORP , 123 MEAT FRUIT & VEGETA",716075,,,,JAC,40.868830,-73.902627,"123 W KINGSBRIDGE RD, BRONX, NY 10468",,,,,,,,,,,,
7714,"124 DELI GROCERY INC , 124 DELI GROCERY",629082,,,,JAC,40.713896,-73.992096,"124 E BROADWAY, NEW YORK, NY 10002",,,,,,,,,,,,
460,"124 MEAT FOOD CORP , ANTILLANA SUPERMARKET",703250,,,,JAC,40.862799,-73.906620,"122 124 W FORDHAM RD, BRONX, NY 10468",,,,,,,,,,,,
2602,"124 UNION STOP 1 FOOD MART INC , 124 UNION STOP 1 FOOD M",708041,,,,JAC,40.684231,-74.002440,"124 UNION ST, BROOKLYN, NY 11231",,,,,,,,,,,,
15,"124-176 MORRIS GROCERY CORP , 124-176 MORRIS GROCERY",731924,,,,JAC,40.848095,-73.908915,"124 EAST 176TH STREET, BRONX, NY 10453",,,,,,,,,,,,
7716,"125 FOOD MART INC , 125TH ST FOOD MART",725385,,,,A,40.814136,-73.956997,"521 WEST 125TH STREET, NEW YORK, NY 10027",,,,,,,,,,,,
9056,"125 STREET GROCERY CORP , GROCERY & CANDY",627426,,,,A,40.804465,-73.937612,"132 E 125TH ST, NEW YORK, NY 10035",,,,,,,,,,,,
16,"125 W 165 ST GROCERY CORP , 125 W 165 ST GROCERY",609148,,,,JAC,40.834279,-73.928060,"125 W 165TH ST, BRONX, NY 10452",,,,,,,,,,,,
7717,"126 CANDY GROCERY CORP , 126 CANDY GROCERY",717617,,,,A,40.811201,-73.950419,"2359 FREDERICK DOUGLASS BLVD, NEW YORK, NY 10027",,,,,,,,,,,,
10460,"126 FOOD CORP , 126 FOOD",717916,,,,JAC,,0.000000,"126 04 JAMAICA AVE, RICHMOND HILL, NY 11418",,,,,,,,,,,,
1141,"126-MEAT CORP , FOODTOWN",608922,,,,JAC,40.846189,-73.920240,"126 FEATHERBED LANE, BRONX, NY 10452",,,,,,,,,,,,
10461,"127 DELI GROCERY INC , 127 DELI GROCERY",722977,,,,JAC,,0.000000,"127 01 111TH AVE, SOUTH OZONE PARK, NY 11420",,,,,,,,,,,,
7719,"128 GOURMET DELI CORP , 128 GOURMET DELI",710766,,,,JAC,40.806763,-73.937137,"104 EAST 128TH ST, NEW YORK, NY 10035",,,,,,,,,,,,
10462,"128 M DELI & GROCERY INC , 128 M DELI & GROCERY",706523,,,,JAC,,0.000000,"128 02 LIBERTY AVE, SOUTH RICHMOND HIL, NY 11419",,,,,,,,,,,,
7720,"128 P&L DELI GROCERY CORP , 128 P&L DELI GROCERY",708441,,,,JAC,40.842738,-73.936727,"128 AUDUBON AVE, NEW YORK, NY 10032",,,,,,,,,,,,
7721,"128 T EDGECOMBE DELI CORP , 128 T EDGECOMBE DELI",734449,,,,JAC,40.820973,-73.945029,"128 EDGECOMBE AVENUE, NEW YORK, NY 10030",,,,,,,,,,,,
2607,"129 AVENUE U GROCERY INC , 129 AVENUE U GROCERY",617266,,,,JAC,40.596276,-73.979644,"129 AVENUE, BROOKLYN, NY 11223",,,,,,,,,,,,
21,"129 CARIBE CORP , 129 CARIBE",711434,,,,JAC,40.849999,-73.913639,"129 W TREMONT AVE, BRONX, NY 10453",,,,,,,,,,,,
2608,"129 DWIGHT ST FOOD CORP , 129 DWIGHT ST FOOD",713137,,,,JAC,40.675163,-74.010075,"129 DWIGHT ST, BROOKLYN, NY 11231",,,,,,,,,,,,
13434,"130-10 FOOD CORP , TRADE FAIR II",630493,,,,JABC,,0.000000,"130 10 METROPOLITAN AVE, RICHMOND HILL, NY 11418",,,,,,,,,,,,
2610,"131 MANHATTAN DELI GROCERY CORP , 131 MANHATTAN DELI GRCY",615275,,,,JAC,40.707294,-73.944917,"134 MANHATTAN AVE, BROOKLYN, NY 11206",,,,,,,,,,,,
10465,"131 ROCKAWAY FOOD CORP , 131 ROCKAWAY FOOD",671090,,,,JAC,,0.000000,"131 02 ROCKAWAY BLVD, SOUTH OZONE PARK, NY 11420",,,,,,,,,,,,
10464,"131-21 STOP ONE DELI&GRCRY CORP , 131-21 STOP ONE DELI&GR",638362,,,,JAC,,0.000000,"131 21 SPRINGFIELD BLVD, SPRINGFIELD GARDEN, NY 11413",,,,,,,,,,,,
9606,"132 DELI & GROCERY CORP , MINI MARKET",628338,,,,JAC,40.813382,-73.945215,"2240 7TH AVE, NEW YORK, NY 10027",,,,,,,,,,,,
2611,"132 EXPRESS DELI INC , 132 EXPRESS DELI",707687,,,,JAC,40.705970,-73.942976,"132 GRAHAM AVE, BROOKLYN, NY 11206",,,,,,,,,,,,
7723,"132 VERMILYEA DELI & GROCERY CORP , 132 VERMILYEA DELI & GR",716564,,,,JAC,40.866625,-73.920990,"132 VERMILYEA AVE, NEW YORK, NY 10034",,,,,,,,,,,,
2612,"133 FOOD CORP , 133 FOOD",614054,,,,JAC,40.687437,-73.972534,"133 LAFAYETTE AVE, BROOKLYN, NY 11238",,,,,,,,,,,,
26,"134TH MEAT MARKET INC , 134TH MEAT MARKET INC T",703722,,,,JAC,40.804903,-73.920809,"514 E 134TH ST, BRONX, NY 10454",,,,,,,,,,,,
7725,"134TH STREET DELI GROCERY CORP , 134TH STREET DELI GROCE",704233,,,,JAC,40.814599,-73.944098,"198 W 134TH STREET, NEW YORK, NY 10030",,,,,,,,,,,,
8823,"135 FUTURE L&M CORP , FINE FARE",628461,,,,JAC,40.813346,-73.939050,"24 W 135TH ST, NEW YORK, NY 10037",,,,,,,,,,,,
7960,"135 W 3RD ST RETAIL CORP , 7 ELEVEN STORE #36799A",707583,,,,JAC,40.730833,-74.000944,"135 W 3RD ST, NEW YORK, NY 10012",,,,,,,,,,,,
7726,"135TH STREET DELI & GROCERY CORP , 135TH ST DELI & GROCERY",629287,,,,JAC,40.816238,-73.945912,"266 W 135TH ST, NEW YORK, NY 10030",,,,,,,,,,,,
10466,"136 DELI & GRILL INC , 136 DELI & GRILL",733491,,,,JAC,,0.000000,"135 33 SPRINGFIELD BLVD, SPRINGFIELD GARDEN, NY 11413",,,,,,,,,,,,
10467,"136 DELI GROCERY CORP , 136 DELI GROCERY",725796,,,,JAC,,0.000000,"136 09 FARMERS BLVD, JAMAICA, NY 11434",,,,,,,,,,,,
12890,"138-17 QUICK STOP DELI LLC , QUICK STOP DELI & GROCE",713772,,,,JAC,,0.000000,"138 17 JAMAICA AVE, JAMAICA, NY 11435",,,,,,,,,,,,
12163,"138-37 FOOD CORP , KEY FOOD SUPERMARKET",733800,,,,JAC,,0.000000,"138 37 QUEENS BLVD, JAMAICA, NY 11435",,,,,,,,,,,,
30,"139 GOURMET DELI CORP , 139 GOURMET DELI",729118,,,,JAC,40.810628,-73.924722,"274 ALEXANDER AVE, BRONX, NY 10454",,,,,,,,,,,,
7728,"140 CHARLES OASIS GOURMET INC , 140 CHARLES GOURMET",629221,,,,JAC,40.734147,-74.008111,"140 CHARLES ST, NEW YORK, NY 10014",,,,,,,,,,,,
4970,"140 SCHERMERHORN STREET PROPERTY , HILTON BROOKLYN NY",727668,,,,A,40.689827,-73.988226,"140 SCHERMERHORN ST, BROOKLYN, NY 11201",,,,,,,,,,,,
13650,"141 EXPRESS DELI CORP , 141 EXPRESS DELI",641501,,,,A,40.597958,-74.066741,"141 MCCLEAN AVE, STATEN ISLAND, NY 10305",,,,,,,,,,,,
7729,"141 FINEST DELI CORP , 141 FINEST DELI CORP",724349,,,,JAC,40.820882,-73.945164,"332 W 141ST STREET, NEW YORK, NY 10030",,,,,,,,,,,,
10469,"142 BEST SUPER DELI INC , 142 BEST SUPER DELI",720623,,,,JAC,40.674097,-73.798598,"14134 ROCKAWAY BLVD, JAMAICA, NY 11436",,,,,,,,,,,,
10470,"142 SUPER DELI CORP , 142 SUPER DELI",672028,,,,JAC,,0.000000,"141 34 ROCKAWAY BLVD, JAMAICA, NY 11436",,,,,,,,,,,,
7730,"143 N EXPRESS DELI CORP , 142 N EXPRESS DELI",628709,,,,JAC,40.821707,-73.942749,"2697 8TH AVE, NEW YORK, NY 10030",,,,,,,,,,,,
10472,"144 DELI GROCERY CORP , 144 DELI GROCERY",732840,,,,JAC,,0.000000,"144 12 LAKEWOOD AVENUE, JAMAICA, NY 11435",,,,,,,,,,,,
7732,"144 DELI GROCERY STORE CORP , 144 DELI GROCERY",628885,,,,JAC,40.861280,-73.925621,"144 NAGLE AVE, NEW YORK, NY 10040",,,,,,,,,,,,
10473,"144 MEAT INC , 144 MEAT",716887,,,,JAC,,0.000000,"144 28 LAKEWOOD AVE, JAMAICA, NY 11435",,,,,,,,,,,,
7733,"145 DELI&GROCERY INC , 145 DELI&GROCERY",626486,,,,JAC,40.825112,-73.947698,"1717 AMSTERDAM AVE, NEW YORK, NY 10031",,,,,,,,,,,,
2620,"147 FRIENDS GROCERY CORP , 147 FRIENDS GROCERY",722575,,,,JAC,40.696249,-73.973735,"147 PARK AVE, BROOKLYN, NY 11205",,,,,,,,,,,,
2621,"147 M & A DELI GROCERY CORP , 147 M & A DELI GROCERY",722405,,,,JAC,40.700395,-73.925197,"147 WILSON AVE, BROOKLYN, NY 11237",,,,,,,,,,,,
7735,"147 SPICY DELI INC , 147 SPICY DELI",715456,,,,JAC,40.823281,-73.937978,"2546 ADAM CLAYTON POWELL JR BLVD, NEW YORK, NY 10039",,,,,,,,,,,,
7736,"148 DELI GROCERY INC , 148 DELI GROCERY",627334,,,,JAC,40.824863,-73.940452,"2787 8TH AVE, NEW YORK, NY 10039",,,,,,,,,,,,
7737,"148 FOOD PLAZA INC , 148 FOOD PLAZA",627045,,,,JAC,40.828137,-73.949079,"3596 BROADWAY, NEW YORK, NY 10031",,,,,,,,,,,,
7738,"149 GOURMET DELI INC , 149 GOURMET DELI",724391,,,,JAC,,0.000000,"781 ST NICHOLAS AVE, NEW YORK, NY 10031",,,,,,,,,,,,
1103,"149 STREET FOOD CORP , FINE FARE SUPERMARKET",721681,,,,JAC,40.815373,-73.916003,"459 EAST 149TH STREET, BRONX, NY 10455",,,,,,,,,,,,
35,"149 WILLIS INC , 149 WILLIS",725177,,,,JAC,40.815743,-73.918022,"526B WILLIS AVENUE, BRONX, NY 10455",,,,,,,,,,,,
36,"150 AURORA GROCERY CORP , 150 AURORA GROCERY STR",608890,,,,JAC,40.844843,-73.909289,"150 E 174TH ST, BRONX, NY 10457",,,,,,,,,,,,
7740,"150 MARKET INC , 150 MARKET",627983,,,,JAC,40.709634,-74.006348,"150 WILLIAM ST, NEW YORK, NY 10038",,,,,,,,,,,,
3323,"150 WYTHE INC , BAKERI",732939,,,,JAC,40.677677,-74.017666,"175 VAN DYKE ST, BROOKLYN, NY 11231",,,,,,,,,,,,
13567,"150-65 LLC , WHITESTONE AUTO CENTER",731927,,,,JAC,,0.000000,"150 65 CROSS ISLAND PKWY, WHITESTONE, NY 11357",,,,,,,,,,,,
1094,"151 E TREMONT FOOD CORP , FINE FARE",733031,,,,JAC,40.850394,-73.906844,"151 E TREMONT AVE, BRONX, NY 10453",,,,,,,,,,,,
39,"152 VM GROCERY CORP , 152 VM GROCERY",608814,,,,JAC,40.840160,-73.914034,"152 E 171ST ST, BRONX, NY 10452",,,,,,,,,,,,
38,"152ND STREET FOOD CORP , 152ND STREET FOOD",710516,,,,JAC,40.815213,-73.904145,"835 E 152ND ST, BRONX, NY 10455",,,,,,,,,,,,
44,"153 DELI GROCERY INC , 153 DELI GROCERY",732268,,,,JAC,40.818727,-73.927761,"153 EAST 149TH STREET, BRONX, NY 10451",,,,,,,,,,,,
7746,"153 J AND J FOOD MARKET CORP , 153 J AND J FOOD MARKET",725366,,,,JAC,40.787681,-73.949252,"153 EAST 99TH STREET, NEW YORK, NY 10029",,,,,,,,,,,,
45,"155 DELI GROCERY CORP , 155 DELI GROCERY",609617,,,,A,40.819623,-73.913465,"3021 3RD AVE, BRONX, NY 10455",,,,,,,,,,,,
13953,"155 MEAT CORP , KEY FOOD 1734",707763,,,,JAC,40.638201,-74.075894,"155 BAY ST, STATEN ISLAND, NY 10301",,,,,,,,,,,,
7749,"155TH STREET AUTO CENTER INC , 155TH STREET AUTO CENTE",715934,,,,A,40.833021,-73.945508,"3740 BROADWAY, NEW YORK, NY 10032",,,,,,,,,,,,
46,"156 FOOD MARKET INC , 156 FOOD MARKET",608643,,,,JAC,,0.000000,"760 GRAND, BRONX, NY 10451",,,,,,,,,,,,
47,"156 GOURMET DELI CORP , 156 GOURMET DELI",730894,,,,JAC,40.817619,-73.903762,"809 E 156TH STREET, BRONX, NY 10455",,,,,,,,,,,,
10474,"157 FOOD MARKET CORP , 157 FOOD MARKET",722157,,,,JAC,,0.000000,"111 77 157TH STREET, JAMAICA, NY 11433",,,,,,,,,,,,
49,"157 GERARD CORP , 157 GERARD",715843,,,,JAC,40.825489,-73.926523,"119 E 157TH ST, BRONX, NY 10451",,,,,,,,,,,,
50,"157 MATANZA DELI GROCERY INC , 157 MATANZA DELI GROCER",715724,,,,JAC,40.840171,-73.925277,"157 WEST 169TH ST, BRONX, NY 10452",,,,,,,,,,,,
2626,"158 DELI GROCERY INC , 158 DELI GROCERY",727829,,,,JAC,40.694820,-73.952466,"158 NOSTRAND AVE, BROOKLYN, NY 11205",,,,,,,,,,,,
11052,"158 ROCKAWAY DELI INC , CANDY SHOP",727308,,,,JAC,,0.000000,"158 02 ROCKAWAY BLVD, JAMAICA, NY 11434",,,,,,,,,,,,
7750,"159 CANDY GROCERY CORP , 159 CANDY GROCERY",711389,,,,A,40.833998,-73.941210,"1995A AMSTERDAM AVE, NEW YORK, NY 10032",,,,,,,,,,,,
10475,"159 GOURMET DELI GROCERY INC , 159 GOURMET DELI GROCER",735082,,,,JAC,,0.000000,"159 03 HILLSIDE AVE, JAMAICA, NY 11432",,,,,,,,,,,,
7548,"159-MP CORP , WILLAMSBURG FOOD TOWN",619451,,,,JAC,40.715244,-73.959593,"159 N 3RD ST, BROOKLYN, NY 11211",,,,,,,,,,,,
2629,"160 CRESCENT DELI&GROCERY CORP , 160 CRESCENT DELI&GRCY",612008,,,,JAC,40.685511,-73.872776,"160 CRESCENT ST, BROOKLYN, NY 11208",,,,,,,,,,,,
10476,"160 GOURMET DELI INC , 160 GOURMET DELI",730891,,,,JAC,,0.000000,"106 65 160TH STREET, JAMAICA, NY 11433",,,,,,,,,,,,
482,"161 EAST MEAT CORP , ASSOCIATED SUPERMARKET",603025,,,,JAC,40.821452,-73.905253,"724 E 161ST ST, BRONX, NY 10456",,,,,,,,,,,,
53,"161 SHADDAD INC , 161 SHADDAD",716328,,,,JAC,40.822353,-73.909207,"575 E 161 ST, BRONX, NY 10456",,,,,,,,,,,,
7755,"162 GOURMET DELI CORP , 162 GOURMET DELI",716562,,,,JAC,40.837231,-73.942705,"601 WEST 162ND ST, NEW YORK, NY 10032",,,,,,,,,,,,
10477,"162 JAMAICA DELI INC , 162 JAMAICA DELI",727890,,,,JAC,40.704734,-73.797947,"8974 162ND STREET, JAMAICA, NY 11432",,,,,,,,,,,,
54,"163 ASHLEY DELI GROCERY INC , 163 ASHLEY DELI GROCERY",704649,,,,JAC,40.823896,-73.908802,"3244 THIRD AVE, BRONX, NY 10451",,,,,,,,,,,,
55,"163 KING DELI INC , 163 KING DELI",706866,,,,JAC,40.823747,-73.908894,"3240 3RD AVE, BRONX, NY 10451",,,,,,,,,,,,
7757,"164 PRESBYTERIAN ST DELI CORP , 164 PRESBYTERIAN ST DEL",724968,,,,JAC,,0.000000,"1081 ST NICHOLAS AVE, NEW YORK, NY 10032",,,,,,,,,,,,
10478,"164TH STREET TRADING INC , 164TH STREET TRADING",635980,,,,JAC,,0.000000,"65 08 164TH ST, FRESH MEADOWS, NY 11365",,,,,,,,,,,,
56,"165 AND ANDERSON SUPERETTE INC , 165 AND ANDERSON SUPERE",730798,,,,JAC,40.833738,-73.926443,"64 W 165TH STREET, BRONX, NY 10452",,,,,,,,,,,,
7759,"165 DELI GROCERY CORP , 165 DELI GROCERY",728715,,,,JAC,40.838031,-73.938268,"2119 AMSTERDAM AVE, NEW YORK, NY 10032",,,,,,,,,,,,
2635,"165 GRAHAM AVE GROCERY CORP , 165 GRAHAM AVE GROCERY",613017,,,,JAC,40.707679,-73.943260,"165 GRAHAM AVE, BROOKLYN, NY 11206",,,,,,,,,,,,
7760,"165 W GOURMET DELI CORP , 165 W GOURMET DELI",717781,,,,JAC,40.838873,-73.939546,"1 AUDUBON AVE, NEW YORK, NY 10032",,,,,,,,,,,,
58,"165 WOODYCREST GROCERY INC , 165 WOODYCREST GROCERY",717998,,,,A,40.833953,-73.927068,"82 W 165TH STREET, BRONX, NY 10452",,,,,,,,,,,,
4478,"165 YORK FINE FOOD CORP , FINE FOOD",619806,,,,JAC,40.701425,-73.984327,"165 YORK ST, BROOKLYN, NY 11201",,,,,,,,,,,,
59,"166 QUICK STOP GROCERY INC , 166 QUICK STOP GROCERY",732277,,,,JAC,40.830893,-73.917586,"1060 SHERMAN AVE, BRONX, NY 10456",,,,,,,,,,,,
7764,"167 CANDY CORP , 167 CANDY",732611,,,,JAC,40.839504,-73.937862,"502 W 167TH ST, NEW YORK, NY 10032",,,,,,,,,,,,
1247,"167 PARKS FISH MARKET INC , GRAND FISH MARKET",725381,,,,JAC,40.833866,-73.916253,"214 E 167TH STREET, BRONX, NY 10456",,,,,,,,,,,,
7765,"168 8TH AVE FOOD CORP , 168 8TH AVE FOOD",724423,,,,JAC,40.742519,-74.000500,"168 8TH AVE, NEW YORK, NY 10011",,,,,,,,,,,,
7766,"168 FRUIT&VEGETABLE CORP , 168 FRUIT&VEGETABLE",624892,,,,JAC,40.742117,-73.997084,"168 7TH AVE, NEW YORK, NY 10011",,,,,,,,,,,,
63,"168TH SUPERIOR MARKET INC , 168TH SUPERIOR MARKET",607459,,,,JAC,40.838298,-73.924567,"108 W 168TH ST, BRONX, NY 10452",,,,,,,,,,,,
10480,"169 DELI GROCERY CORP , 169 DELI GROCERY",638303,,,,JAC,,0.000000,"87 78C 169TH ST, JAMAICA, NY 11432",,,,,,,,,,,,
10481,"169 FRESH FISH MARKET LLC , 169 FRESH FISH MARKET",731112,,,,JAC,,0.000000,"169 13 JAMAICA AVE, JAMAICA, NY 11432",,,,,,,,,,,,
5262,"169 MEAT CORP , KEY FOOD",718375,,,,JAC,40.633851,-73.963544,"1407 FOSTER AVE, BROOKLYN, NY 11230",,,,,,,,,,,,
7936,"171 MADISON AVENUE RETAIL INC , 7-ELEVEN STORE #35057",629216,,,,JAC,40.747271,-73.983316,"171 MADISON AVE, NEW YORK, NY 10016",,,,,,,,,,,,
13653,"171 VIP DELI & GROCERY CORP , 171 VIP DELI & GROCERY",725629,,,,A,40.635719,-74.166193,"171 SOUTH AVE, STATEN ISLAND, NY 10303",,,,,,,,,,,,
68,"171 WEST CORP , 171 WEST CORP",729069,,,,JAC,40.853963,-73.914754,"171 W BURNSIDE AVE, BRONX, NY 10453",,,,,,,,,,,,
10482,"171-03 FOOD MARKET CORP , 171-03 FOOD MARKET",719800,,,,JAC,,0.000000,"171 03 JAMAICA AVE, JAMAICA, NY 11432",,,,,,,,,,,,
7769,"172 DELI GROCERY CORP , 172 DELI GROCERY",724555,,,,JAC,40.843508,-73.937979,"1230 ST NICHOLAS AVE, NEW YORK, NY 10032",,,,,,,,,,,,
8251,"172 FOOD CORP , BROADWAY FARM",626772,,,,JAC,40.844228,-73.938969,"4081 BROADWAY, NEW YORK, NY 10032",,,,,,,,,,,,
69,"172 GROCERY AND CANDY CORP , 172 GROCERY AND CANDY",731563,,,,A,40.832581,-73.869149,"1745 172ND ST, BRONX, NY 10472",,,,,,,,,,,,
10483,"172 MINI MART INC , 172 MINI MART",733999,,,,JAC,,0.000000,"172 01 BAISLEY BLVD, JAMAICA, NY 11434",,,,,,,,,,,,
7770,"173 JR GROCERY INC , 173 JR GROCERY",723255,,,,JAC,40.844648,-73.938719,"615 W 173RD STREET, NEW YORK, NY 10032",,,,,,,,,,,,
13220,"174-02 HHE REALTY OPERATING CORP , SNACK SHOP",726910,,,,JAC,,0.000000,"174 02, FRESH MEADOWS, NY 11365",,,,,,,,,,,,
11546,"175 DELI & GROCERY CORP , FAMILY MOON DELI & GROC",716248,,,,JAC,,0.000000,"175 05 JAMAICA AVE, JAMAICA, NY 11432",,,,,,,,,,,,
7771,"175 PRESBYTERIAN DELI CORP , 175 PRESBYTERIAN DELI",723839,,,,JAC,40.845988,-73.936170,"1317 ST NICHOLAS AVE, NEW YORK, NY 10033",,,,,,,,,,,,
74,"178 GOURMET DELI CORP , 178 GOURMET DELI",727526,,,,JAC,40.852254,-73.910754,"1930 GRAND, BRONX, NY 10457",,,,,,,,,,,,
10046,"178 JJH INC , SHOP FAIR SUPERMARKET",730414,,,,JAC,40.798231,-73.940695,"178 E 116TH STREET, NEW YORK, NY 10029",,,,,,,,,,,,
10333,"180 3RD AVE LLC , WESTSIDE MARKET",734145,,,,JAC,40.734990,-73.985943,"180 3RD AVE, NEW YORK, NY 10003",,,,,,,,,,,,
78,"180 BUS STOP DELI INC , 180 BUS STOP DELI",721094,,,,JAC,40.847981,-73.888520,"702 E 180TH STREET, BRONX, NY 10457",,,,,,,,,,,,
79,"180 CANDY GROCERY TOBACCO CORP , 180 CANDY GROCERY TOBAC",724792,,,,A,40.850563,-73.893769,"535A EAST 180TH STREET, BRONX, NY 10457",,,,,,,,,,,,
80,"180 EXPRESS DELI CORP , 180 EXPRESS DELI",609414,,,,JAC,40.844828,-73.882106,"906 E 180TH ST, BRONX, NY 10460",,,,,,,,,,,,
81,"180 LA DELI GROCERY CORP , 180 LA DELI GROCERY",705401,,,,JAC,40.832816,-73.918213,"180 MCLELLAN ST, BRONX, NY 10456",,,,,,,,,,,,
9257,"180 MARKETPLACE INC , JUBILEE MARKET",627439,,,,JAC,40.778519,-73.988442,"180 RIVERSIDE BLVD, NEW YORK, NY 10069",,,,,,,,,,,,
5790,"181 AVENUE U MEATS INC , MEATS SUPREME",617107,,,,JAC,40.603440,-73.979142,"181 AVENUE, BROOKLYN, NY 11223",,,,,,,,,,,,
7774,"181 GERMAN DELI INC , 181 GOURMET DELI",710079,,,,JAC,40.851106,-73.938983,"815 W 181ST ST, NEW YORK, NY 10033",,,,,,,,,,,,
9028,"181 PARK DELI CORP , GRILL & HEIGHT DELI",714991,,,,JAC,40.848415,-73.931577,"508 W 181ST ST, NEW YORK, NY 10033",,,,,,,,,,,,
83,"181ST CANDY & DELI CORP , 181ST CANDY & DELI",708709,,,,JAC,40.854775,-73.902970,"110 E 181ST STREET, BRONX, NY 10453",,,,,,,,,,,,
7952,"182 5TH AVE RETAIL CORP , 7 ELEVEN STORE #35819A",717944,,,,JAC,40.741217,-73.989818,"182 5TH AVE, NEW YORK, NY 10010",,,,,,,,,,,,
2647,"182 FRUIT & VEGETABLE LLC , 182 FRUIT & VEGETABLE",706108,,,,JAC,40.594350,-73.977360,"182 AVENUE, BROOKLYN, NY 11223",,,,,,,,,,,,
85,"182 WILLIS DELI & GROCERY CORP , 182 WILLIS DELI & GROCE",734704,,,,JAC,40.807698,-73.923930,"182 WILLIS AVENUE, BRONX, NY 10454",,,,,,,,,,,,
84,"182ND ST DELI GROCERY CORP , 182ND ST DELI GROCERY",721708,,,,JAC,40.848591,-73.883632,"816 E 182ND STREET, BRONX, NY 10460",,,,,,,,,,,,
7776,"183 CHRISTOPHER STREET MARKET LLC , 183 CHRISTOPHER STREET",725325,,,,JAC,40.729817,-74.010480,"353 WEST 14TH STREET, NEW YORK, NY 10014",,,,,,,,,,,,
1152,"183 FOOD MARKET CORP , FOOD UNIVERSE MARKETPLA",730843,,,,JAC,40.859129,-73.906094,"60 WEST 183RD STREET, BRONX, NY 10453",,,,,,,,,,,,
87,"183 GOLD FISH MARKET CORP , 183 GOLD FISH MARKET",708527,,,,JAC,40.858549,-73.904438,"12 WEST 183RD ST, BRONX, NY 10453",,,,,,,,,,,,
3723,"183 WYCKOFF MEAT CORP , CARNICERIA LA ESPANOLA",614439,,,,JACK,40.702865,-73.916921,"183 WYCKOFF AVE, BROOKLYN, NY 11237",,,,,,,,,,,,
88,"183RD FOOD CENTER CORP , 183RD FOOD CENTER",724498,,,,JAC,40.858505,-73.904303,"9A WEST 183RD STREET, BRONX, NY 10453",,,,,,,,,,,,
605,"184 FOOD CORP , BRAVO SUPERMARKET",733402,,,,JAC,40.878642,-73.904069,"184 WEST 231ST STREET, BRONX, NY 10463",,,,,,,,,,,,
7778,"186 GROCERY CORP , 186 GROCERY",702696,,,,JAC,40.851877,-73.930288,"547 W 186TH ST, NEW YORK, NY 10033",,,,,,,,,,,,
7779,"186 GROCERY II CORP , 186 GROCERY II",703127,,,,JAC,40.824677,-73.948016,"1700 AMSTERDAM AVE, NEW YORK, NY 10031",,,,,,,,,,,,
6933,"187 PRODUCE CORP , SHOP FAIR",728967,,,,JAC,40.672900,-73.936315,"187 TROY AVENUE, BROOKLYN, NY 11213",,,,,,,,,,,,
91,"187 ST CONVENIENCE SHOP INC , 187 ST CONVENIENCE SHOP",725321,,,,A,40.854780,-73.886000,"655 E 187 ST, BRONX, NY 10458",,,,,,,,,,,,
10484,"188 MINI MART INC , 188 MINI MART",715889,,,,JAC,40.752578,-73.792231,"4613B 188TH ST, FLUSHING, NY 11358",,,,,,,,,,,,
95,"188 PARK DELI GROCERY CORP , 188 PARK DELI GROCERY",712495,,,,JAC,40.864359,-73.903925,"2457 UNIVERSITY AVE, BRONX, NY 10468",,,,,,,,,,,,
2649,"188 UTICA GROCERY INC , 188 UTICA GROCERY",614887,,,,JAC,40.672497,-73.930774,"188 UTICA AVE, BROOKLYN, NY 11213",,,,,,,,,,,,
96,"188 VALENTINE DELI CORP , 188 VALENTINE DELI",725215,,,,JAC,40.861159,-73.897082,"221 E 188TH ST, BRONX, NY 10458",,,,,,,,,,,,
7782,"188TH FOOD CORP , 188TH FOOD",702491,,,,JAC,40.855540,-73.930802,"341C WADSWORTH AVE, NEW YORK, NY 10040",,,,,,,,,,,,
1449,"188TH ST GOURMET DELI CORP , KHALED",716138,,,,JAC,40.860306,-73.894073,"346 E 188TH ST, BRONX, NY 10458",,,,,,,,,,,,
9730,"191 AVENUE A INC , NEW YORK GRILL & DELI",723892,,,,JAC,40.728977,-73.981405,"191 AVENUE, NEW YORK, NY 10009",,,,,,,,,,,,
8828,"191 FOOD CORP , FINE FARE SUPERMARKET",622533,,,,JAC,40.855415,-73.929273,"1617 ST NICHOLAS AVE, NEW YORK, NY 10040",,,,,,,,,,,,
99,"192 CONCOURSE GOURMET DELI INC , 192 CONCOURSE GOURMET D",717955,,,,JAC,40.866040,-73.900822,"2558 GRAND, BRONX, NY 10458",,,,,,,,,,,,
100,"193 RENAISSANCE MARKET CORP , 193 RENAISSANCE MARKET",732170,,,,JAC,40.832642,-73.917710,"193 MCCLELLAN STREET, BRONX, NY 10456",,,,,,,,,,,,
2658,"194 DELI AND GROCERY CORP , 194 DELI AND GROCERY",731589,,,,JAC,40.676605,-73.910909,"194 ROCKAWAY AVE, BROOKLYN, NY 11233",,,,,,,,,,,,
7786,"194 MANHATTAN DELI INC , 194 MANHATTAN DELI",628353,,,,JAC,40.800084,-73.960426,"194 MANHATTAN AVE, NEW YORK, NY 10025",,,,,,,,,,,,
2659,"194 THROOP FOOD CORP , 194 THROOP FOOD",703442,,,,JAC,40.698211,-73.944236,"777 PARK AVE, BROOKLYN, NY 11206",,,,,,,,,,,,
10485,"195 JAMAICA DELI GROCERY INC , 195 JAMAICA DELI GROCER",728190,,,,JAC,,0.000000,"195 31 JAMAICA AVE, HOLLIS, NY 11423",,,,,,,,,,,,
1095,"195 WEBSTER MEAT & PRODUCE CORP , FINE FARE",734506,,,,JAC,40.863546,-73.889025,"2645 WEBSTER AVENUE, BRONX, NY 10458",,,,,,,,,,,,
7787,"196 STO DOMINGO GROCERY INC , 196 STO DOMINGO GROCERY",621969,,,,JAC,40.844772,-73.935245,"196 AUDUBON AVE, NEW YORK, NY 10033",,,,,,,,,,,,
8039,"197 8TH AVE DELI CORP , ADAM'S MARKETPLACE 12/",725415,,,,JAC,40.743570,-73.999745,"197 8TH AVENUE, NEW YORK, NY 10011",,,,,,,,,,,,
102,"198 BAINBRIDGE DELI & GROCERY COR , 198 BAINBRIDGE DELI & G",723786,,,,JAC,40.868376,-73.888494,"2839 BAINBRIDGE AVE, BRONX, NY 10458",,,,,,,,,,,,
10486,"198 DELI & GROCERY INC , 198 DELI & GROCERY",733484,,,,JAC,,0.000000,"198 01 JAMAICA AVE, HOLLIS, NY 11423",,,,,,,,,,,,
10487,"199 LINDEN DELI GROCERY , 199 LINDEN DELI GROCERY",715871,,,,JAC,,0.000000,"199 13 LINDEN BLVD, SAINT ALBANS, NY 11412",,,,,,,,,,,,
7799,"200 CANDY CORP , 200 CANDY STORE",705536,,,,A,40.864913,-73.926876,"200 DYCKMAN ST, NEW YORK, NY 10040",,,,,,,,,,,,
2670,"200 JAMAICA FOOD CORP , 200 JAMAICA FOOD",714919,,,,JAC,40.680384,-73.892713,"200 JAMAICA AVE, BROOKLYN, NY 11207",,,,,,,,,,,,
5280,"200 MALCOLM X MEAT CORP , KEY FOOD 1206",614387,,,,JAC,40.686620,-73.929797,"200 MALCOLM X BLVD, BROOKLYN, NY 11221",,,,,,,,,,,,
7800,"200 W 14TH STREET GOURMET INC , 200 W 14TH STREET GOURM",713243,,,,JAC,40.738664,-73.999938,"200 W 14TH ST, NEW YORK, NY 10011",,,,,,,,,,,,
6377,"203 PARKSIDE DELI GRO&LUNCH CORP , PARKSIDE DELI GROCERY",610782,,,,JAC,40.655221,-73.960993,"203 PARKSIDE AVE, BROOKLYN, NY 11226",,,,,,,,,,,,
3610,"204 UNION FOOD CORP , BROOKLYN HARVEST MARKET",712410,,,,JAC,40.706750,-73.950421,"204 UNION AVE, BROOKLYN, NY 11211",,,,,,,,,,,,
13120,"205 SB FRUITS & VEGETABLES CORP , SB FRUIT VEGETABLE & GR",733561,,,,JAC,,0.000000,"205 01 HILLSIDE AVE, HOLLIS, NY 11423",,,,,,,,,,,,
10493,"205-13 HUSAM DELI CORP , 205-13 HUSAM DELI",724216,,,,JAC,,0.000000,"205 13 JAMAICA AVENUE, HOLLIS, NY 11423",,,,,,,,,,,,
2672,"206 DELI GROCERY CORP , 206 DELI GROCERY",723525,,,,JAC,40.684100,-73.989463,"206 HOYT ST, BROOKLYN, NY 11217",,,,,,,,,,,,
118,"206 SAMY GOURMET DELI CORP , 206 SAMY GOURMET DELI",725457,,,,JAC,40.807934,-73.923757,"206 WILLIS AVE, BRONX, NY 10454",,,,,,,,,,,,
11144,"206-16 HOLLIS AVE FOOD CORP , COMPARE FOODS",638881,,,,JAC,,0.000000,"206 16 HOLLIS AVE, QUEENS VILLAGE, NY 11429",,,,,,,,,,,,
377,"207 ALANTE ALANTE DELI GRCY CORP , ALANTE ALANTE DELI GRCY",607865,,,,JAC,40.848331,-73.905703,"207 MT HOPE PL, BRONX, NY 10457",,,,,,,,,,,,
7807,"207 INC I , 207",628809,,,,JAC,40.867611,-73.921469,"4930A BROADWAY, NEW YORK, NY 10034",,,,,,,,,,,,
10142,"207 MEAT CORP , SUPER ASSOCIATED",725450,,,,JACK,40.864114,-73.918072,"410 W 207TH STREET, NEW YORK, NY 10034",,,,,,,,,,,,
5263,"208 CRESCENT MEAT&PRODUCE INC , KEY FOOD",614625,,,,JAC,40.684277,-73.872377,"208 CRESCENT ST, BROOKLYN, NY 11208",,,,,,,,,,,,
7811,"208 RIVINGTON INC , 208 RIVINGTON",628413,,,,JAC,40.718419,-73.982910,"208 RIVINGTON ST, NEW YORK, NY 10002",,,,,,,,,,,,
2674,"209 STATION CORP , 209 STATION",718241,,,,JAC,40.660540,-73.980257,"209 PROSPECT PARK W, BROOKLYN, NY 11215",,,,,,,,,,,,
119,"210 SUPERMARKET CORP , 210 SUPERMARKET",713999,,,,JAC,40.809961,-73.855455,"210 SOUNDVIEW AVE, BRONX, NY 10473",,,,,,,,,,,,
7813,"212 GRAND FOOD CORP , 212 GRAND FOOD",628696,,,,JACD,40.718926,-73.996131,"212 GRAND ST, NEW YORK, NY 10013",,,,,,,,,,,,
2677,"214 BAINBRIDGE DELI GROCERY INC , 214 BAINBRIDGE DELI GRO",707258,,,,JAC,40.681269,-73.928446,"214 BAINBRIDGE ST, BROOKLYN, NY 11233",,,,,,,,,,,,
7816,"215 FANTASTIC DELI CORP , 215 FANTASTIC DELI",722974,,,,JAC,40.803655,-73.953552,"215 W 116TH ST, NEW YORK, NY 10026",,,,,,,,,,,,
2679,"215 FINE FOOD DELI CORP , 215 FINE FOOD DELI",704488,,,,JAC,40.677267,-73.983063,"215 4TH AVE, BROOKLYN, NY 11215",,,,,,,,,,,,
7818,"216 SAL DELI & GROCERY CORP , 216 SAL DELI & GROCERY",712532,,,,JAC,40.729991,-73.980668,"216 AVENUE, NEW YORK, NY 10009",,,,,,,,,,,,
122,"217 BAITOA DELI GROCERY CORP , 217 BAITOA DELI GROCERY",712851,,,,JAC,40.806450,-73.917740,"217 ST ANNS AVE, BRONX, NY 10454",,,,,,,,,,,,
5406,"217 KNICKERBOCKER FOOD CORP I , KNICKERBOCKER FOOD",613486,,,,JAC,40.703165,-73.926014,"217 KNICKERBOCKER AVE, BROOKLYN, NY 11237",,,,,,,,,,,,
10630,"218 BAYSIDE OPERATING LLC , 7-ELEVEN STORE 39192A",639098,,,,JAC,,0.000000,"218 01 NORTHERN BLVD, BAYSIDE, NY 11361",,,,,,,,,,,,
124,"218 GOURMET DELI & TOBACCO CORP , 218 GOURMET DELI & TOBA",726835,,,,A,40.838350,-73.913066,"218 E 170TH STREET, BRONX, NY 10456",,,,,,,,,,,,
125,"219 FISH MARKET INC , 219 FISH MARKET",608451,,,,JAC,40.806577,-73.917651,"219 ST ANNS AVE, BRONX, NY 10454",,,,,,,,,,,,
2680,"219 QUICK STOP CORP , 219 QUICK STOP",722517,,,,A,40.703286,-73.914477,"219 ST NICHOLAS AVE, BROOKLYN, NY 11237",,,,,,,,,,,,
126,"220 ONE WAY DELI GROCERY CORP , 2220 ONE WAY DELI GROCE",723219,,,,JAC,40.858357,-73.868600,"2218 2220 OLINVILLE AVENUE, BRONX, NY 10467",,,,,,,,,,,,
7822,"222 MARKET CORP , 222 MARKET",627670,,,,JAC,40.737516,-73.981162,"384 2ND AVE, NEW YORK, NY 10010",,,,,,,,,,,,
13657,"226 JIMMY DELI GROCERY CORP , 226 JIMMY DELI GROCERY",717912,,,,JAC,40.632439,-74.077073,"226 VAN DUZER ST, STATEN ISLAND, NY 10301",,,,,,,,,,,,
127,"228 MEAT & VEGETABLE CORP , 228 MEAT & VEGETABLE",727872,,,,JAC,40.886167,-73.847983,"4047 LACONIA AVENUE, BRONX, NY 10466",,,,,,,,,,,,
3824,"229 KNICKERBOCKER MEAT CORP , CITY FRESH",610505,,,,JABC,40.702933,-73.925608,"229 KNICKERBOCKER AVENUE, BROOKLYN, NY 11237",,,,,,,,,,,,
130,"230 A&M DELI GROCERY INC , 230 A&M DELI GROCERY",608106,,,,JAC,40.869342,-73.890071,"2840 VALENTINE AVE, BRONX, NY 10458",,,,,,,,,,,,
131,"230 DELI & GROCERY CORP , 230 DELI & GROCERY",715551,,,,JAC,40.891448,-73.858470,"4125 WHITE PLAINS RD, BRONX, NY 10466",,,,,,,,,,,,
132,"230 JC DELI GROCERY INC , 230 JC DELI GROCERY",724571,,,,JAC,40.844724,-73.907292,"230 EAST 174TH STREET, BRONX, NY 10457",,,,,,,,,,,,
1977,"231 FOOD CORP , PIONEER SUPERMARKET",609572,,,,JAC,40.878642,-73.904069,"184 W 231ST ST, BRONX, NY 10463",,,,,,,,,,,,
134,"233 CASTILLO MEAT CORP , 233 CASTILLO MEAT",708460,,,,JAC,40.893847,-73.857146,"4206 09 WHITE PLAINS ROAD, BRONX, NY 10466",,,,,,,,,,,,
135,"233 ST MINI STOP INC , 233 ST MINI STOP",721805,,,,A,40.893330,-73.857437,"4194 WHITE PLAINS RD, BRONX, NY 10466",,,,,,,,,,,,
